venue	lon	lat	checkin_n	user_n	doy_mode	dow_mode	hour_mode	senti_avg
AMC Loews Waterfront 22	-79.9177	40.4066	428	109	2014	144	0	-0.003
Athleta	-79.9343	40.4508	371	2	2014	49	2	0.000
Homestead Grays Bridge	-79.9182	40.4104	284	2	2014	130	2	0.000
Starbucks_18	-79.9348	40.4511	276	5	2014	80	0	0.000
Foreland Home	-80.0032	40.4496	266	1	2014	56	2	0.000
Waterfront Stacks	-79.9180	40.4048	191	2	2014	182	2	0.000
The Church Brew Works	-79.9644	40.4621	180	55	2014	187	6	0.000
Hollywood Tans	-79.9304	40.4564	175	1	2014	23	5	0.000
Primanti Brothers_2	-79.9855	40.4507	167	68	2014	111	6	0.000
Newell-Simon Hall	-79.9456	40.4434	146	5	2014	32	5	0.000
David L. Lawrence Convention Center	-79.9967	40.4457	141	44	2015	190	6	0.000
The Van Cave 2.0	-79.9584	40.3953	137	2	2015	189	3	0.000
The Westin Convention Center Pittsburgh	-79.9952	40.4441	136	24	2015	190	4	0.000
Giant Eagle Market District	-79.9348	40.4567	135	18	2014	32	6	0.000
Integrated Fitness_1	-79.9859	40.4294	121	1	2015	275	1	0.259
A To Z Highand Park	-79.9249	40.4730	119	1	2014	23	2	0.000
Heinz Field Parking Lot	-80.0123	40.4476	119	1	2014	27	3	0.000
Fat Head's Saloon	-79.9801	40.4289	105	57	2014	58	5	0.000
Primanti Brothers_1	-80.0027	40.4403	102	40	2014	193	0	0.000
Market Square	-80.0026	40.4407	101	48	2014	73	6	0.000
Confluence	-79.9977	40.4492	96	1	2015	188	3	0.000
Clear Channel Communications	-80.0493	40.4209	96	1	2014	59	5	0.245
Anthrocon 2015	-79.9955	40.4443	96	16	2015	192	6	0.000
Sweet Dreamland	-79.8801	40.4086	95	2	2015	189	0	0.333
Emporio A Meatball Joint	-79.9965	40.4441	94	20	2014	13	6	0.000
Sienna Mercato	-79.9965	40.4441	94	38	2014	191	6	0.000
Me Lyng_3	-79.9138	40.4054	90	2	2014	128	4	0.000
Mr. Smalls Theatre	-79.9723	40.4808	90	36	2014	45	0	-0.025
Target_2	-79.9220	40.4608	87	25	2014	22	0	0.371
Crazy Mocha_9	-79.9303	40.4566	86	3	2014	32	5	-0.314
Kennywood Park	-79.8646	40.3867	77	57	2014	185	6	0.000
Me Lyng_1	-79.9138	40.4082	76	2	2014	119	2	0.000
TechShop	-79.9162	40.4572	75	9	2014	277	0	0.000
Starbucks_4	-79.9840	40.4287	75	9	2015	185	6	0.000
J's New Lockdown	-80.0926	40.4271	74	1	2014	120	5	0.000
Crazy Mocha_1	-79.9992	40.4428	73	5	2015	190	4	-0.290
Andy Warhol Museum	-80.0022	40.4485	72	55	2014	241	6	0.000
Whole Foods Market	-79.9282	40.4587	70	19	2014	87	2	0.000
TGI Fridays_2	-79.9156	40.4106	69	20	2014	39	6	0.000
Children's Hospital of Pittsburgh of UPMC	-79.9531	40.4664	69	18	2014	34	1	0.000
Hofbruhaus Pittsburgh	-79.9646	40.4286	64	49	2014	26	6	0.000
Starbucks_15	-79.9276	40.4590	64	9	2014	67	6	0.000
Rock Bottom Restaurant & Brewery	-79.9149	40.4097	63	20	2014	94	6	0.000
The Scrivens Cave	-79.9584	40.3953	62	1	2015	157	0	0.000
East Liberty Presbyterian Church	-79.9255	40.4609	61	1	2014	26	0	0.308
JCC Fitness Center_2	-79.9238	40.4375	60	2	2015	189	3	0.231
Chipotle Mexican Grill_1	-79.9474	40.4542	60	16	2014	2	2	0.000
Burgatory_1	-79.9176	40.4073	60	35	2015	189	6	0.000
Gold's Gym	-80.0039	40.4411	59	6	2014	76	1	0.000
2014_2	-79.9957	40.4444	58	25	2014	186	6	0.000
Carnegie Museum Of Natural History	-79.9505	40.4434	56	33	2014	284	6	0.221
Round Corner Cantina	-79.9643	40.4668	55	27	2014	74	0	0.000
The Factory	-79.9654	40.4282	55	39	2014	74	0	0.000
Noodlehead	-79.9251	40.4577	53	21	2014	60	6	0.000
Rivertowne North Shore	-80.0105	40.4458	53	19	2014	275	0	0.000
Yoga Flow_1	-79.9341	40.4512	52	5	2015	56	2	0.000
Buffalo Blues	-79.9253	40.4584	52	7	2014	156	3	0.000
DeLuca's Diner	-79.9836	40.4514	52	28	2014	119	0	0.000
Munhall Borough Building & Police Station	-79.9045	40.3990	51	1	2014	23	0	0.000
Our House	-79.9249	40.4529	51	1	2014	220	5	0.000
5801 Video Lounge & Cafe	-79.9308	40.4564	50	11	2015	276	6	0.000
Carnegie Science Center	-80.0178	40.4457	50	25	2014	190	6	0.000
Community Supermarket	-79.8821	40.4884	50	2	2014	24	3	0.000
CCAC Allegheny Campus	-80.0135	40.4496	50	4	2014	58	2	0.000
Restaurant Depot	-79.9729	40.4636	50	6	2014	30	6	0.000
Stack'd	-79.9350	40.4512	49	16	2014	203	4	0.000
SouthSide Works Cinema	-79.9651	40.4278	48	24	2014	275	5	-0.021
The Beer Market	-80.0041	40.4478	47	28	2014	275	6	0.000
Sharp Edge Bistro on Penn	-79.9973	40.4439	47	30	2014	193	0	0.000
Spaghetti Warehouse	-79.9794	40.4559	47	13	2014	23	6	0.000
Epicenter	-79.9361	40.4539	46	1	2014	100	2	0.000
Pamela's P&G Diner_2	-79.9792	40.4519	46	22	2014	117	0	0.000
Tonic Bar And Grill	-79.9951	40.4437	46	23	2015	190	4	0.000
Hard Rock Cafe Pittsburgh	-80.0048	40.4339	45	30	2014	94	5	-0.147
Phipps Conservatory and Botanical Gardens	-79.9483	40.4390	45	37	2014	293	6	0.000
The Smiling Moose	-79.9849	40.4288	44	23	2014	190	0	0.260
Marty's Market	-79.9822	40.4537	44	13	2014	57	4	0.000
Jerome Bettis' Grille 36	-80.0116	40.4456	43	28	2014	103	0	0.000
Starbucks_1	-80.0022	40.4402	43	15	2014	17	0	0.000
Highland Park_1	-79.9160	40.4797	42	3	2014	26	0	0.000
Local Bar + Kitchen	-79.9829	40.4289	42	27	2014	74	0	0.000
Pittsburgh Zoo & PPG Aquarium	-79.9208	40.4835	41	20	2015	158	6	0.000
Trader Joe's	-79.9189	40.4590	41	17	2014	151	0	0.000
Roland's Seafood Grill and Iron Landing	-79.9844	40.4508	41	21	2014	18	0	0.000
The Summit PGH	-80.0075	40.4309	41	6	2015	74	0	0.000
Eatery	-80.0106	40.4458	40	22	2014	306	0	0.000
Claddagh Irish Pub	-79.9647	40.4281	40	19	2014	186	0	0.000
Fort Pitt Bridge	-80.0110	40.4390	40	13	2014	88	3	0.000
ScienceJesus' Laboratory	-79.8801	40.4288	40	1	2015	84	3	0.000
Shadyside Garage	-79.9340	40.4515	39	1	2014	71	2	0.000
Costco	-79.9213	40.4031	39	16	2014	3	0	0.000
Fernando's Cafe	-79.9955	40.4435	39	12	2014	187	0	0.000
Pittsburgh Public Market	-79.9876	40.4501	39	14	2014	142	0	0.000
Social at Bakery Square	-79.9160	40.4567	39	19	2014	184	5	0.000
Benedum Center For The Performing Arts	-79.9997	40.4430	38	27	2014	67	0	0.000
Espresso A Mano	-79.9649	40.4660	38	11	2014	23	6	0.000
Squirrel Hill_3	-79.9244	40.4350	38	5	2014	145	6	0.000
Senator John Heinz	-79.9921	40.4468	38	20	2014	185	6	0.000
Target_1	-79.9108	40.4108	38	13	2014	99	0	0.000
BRGR Bar	-79.9256	40.4596	37	21	2014	35	0	0.000
Sonoma Grille	-79.9962	40.4442	37	13	2014	193	2	0.000
Starbucks_7	-79.9485	40.4446	37	10	2014	84	3	0.000
Wyndham Grand Pittsburgh Downtown	-80.0064	40.4417	37	13	2014	23	2	0.288
Carson Street Deli	-79.9831	40.4289	37	12	2014	67	3	0.000
Thelma Lovette YMCA	-79.9780	40.4447	37	2	2014	273	1	0.000
otter and wolf den	-79.9738	40.4808	36	1	2014	64	3	0.000
Fuel On	-79.9316	40.4552	36	1	2014	53	2	0.000
D's Six Pax & Dogz	-79.8937	40.4321	36	21	2014	131	1	0.000
Starbucks_10	-80.0000	40.4422	35	8	2014	193	2	0.000
Heinz Hall	-80.0016	40.4427	35	21	2014	87	0	0.006
Fiori's Pizzaria	-80.0188	40.4052	35	11	2015	287	3	0.000
Redbeard's Bar & Grill	-80.0073	40.4307	35	14	2014	276	6	0.000
Philsyland 2.0	-79.9808	40.4275	35	1	2014	28	3	0.000
Children's Hospital of Pittsburgh Speech Department	-79.9526	40.4664	35	1	2014	31	1	0.000
Nicky's Thai Kitchen_2	-79.9984	40.4437	34	18	2014	1	4	0.000
School of Information Sciences	-79.9525	40.4472	34	1	2015	84	3	0.000
Images	-79.9955	40.4434	33	7	2015	96	0	0.000
Primanti Bros_1	-79.9792	40.4285	33	25	2014	87	6	0.000
James Street GastroPub & Speakeasy	-80.0010	40.4544	33	23	2014	277	6	0.000
Bikram Yoga Pittsburgh	-79.9665	40.4630	33	2	2015	10	3	0.000
Industry Public House	-79.9603	40.4708	33	13	2015	276	6	0.000
North View Medical	-80.0039	40.4716	33	1	2014	122	5	0.000
Blue Dust	-79.9117	40.4080	33	13	2014	101	6	0.000
Butcher and the Rye	-80.0020	40.4423	33	18	2014	144	6	0.022
Wigle Whiskey	-79.9813	40.4544	33	15	2014	354	6	0.000
Meat and Potatoes	-80.0008	40.4430	33	21	2015	189	0	0.000
Club Cycle	-80.0419	40.3891	32	3	2014	23	2	0.000
OTB Bicycle Cafe	-79.9690	40.4276	32	15	2015	276	6	0.000
Steel Cactus Mexican Restaurante & Cantina_1	-79.9335	40.4513	31	15	2014	268	6	0.000
Ryan's Pub & Grill	-79.8974	40.4394	31	3	2014	281	0	0.000
KDKA-TV	-80.0070	40.4426	31	3	2014	187	1	0.000
Starbucks_2	-79.9884	40.4408	31	11	2014	283	5	0.000
Yokoso! Japanese Steak House	-79.9157	40.4089	31	9	2014	74	0	0.000
Dee's Cafe	-79.9847	40.4288	30	14	2014	67	0	0.000
Smoke Barbeque & Taqueria	-79.9101	40.4076	30	7	2014	32	5	0.000
Winghart's Whiskey & Burger Bar	-79.9831	40.4288	30	17	2014	117	0	0.000
Chipotle Mexican Grill_4	-79.9258	40.4592	30	9	2014	11	0	0.000
Coffee Tree Roasters_1	-79.8829	40.4884	30	1	2015	275	5	0.000
The Sparkly Porsche	-79.9505	40.4816	30	1	2014	39	2	0.000
St. Bernard Church	-80.0432	40.3864	30	4	2014	186	0	0.000
Mullens Bar & Grill	-80.0041	40.4484	29	24	2014	281	6	0.000
Lulu's Noodles	-79.9488	40.4453	29	10	2015	87	6	0.000
Subway_1	-79.9967	40.4442	29	5	2014	37	0	0.000
Jimmy D's	-79.9817	40.4289	28	12	2014	61	0	0.000
Port Authority First Avenue Station	-79.9967	40.4355	28	6	2014	175	3	0.136
CCAC Library Building	-80.0133	40.4497	28	2	2014	20	2	0.000
Duquesne Incline_1	-80.0175	40.4399	28	15	2015	179	0	0.000
True Runner	-79.9352	40.4507	28	4	2014	282	5	0.347
Old Navy_1	-79.9060	40.4119	28	5	2014	2	5	0.000
There Ultra Lounge	-79.9967	40.4430	28	8	2014	61	0	0.000
Grill & Bar	-79.8912	40.4870	28	10	2015	189	3	0.000
Northside Summer Celebration	-80.0002	40.4667	28	1	2014	124	5	0.000
Benjamin's Western Avenue Burger Bar	-80.0166	40.4520	28	12	2014	187	6	0.000
Pittsburgh_6	-80.0952	40.3823	27	15	2014	40	5	0.000
Shady Grove	-79.9337	40.4509	27	10	2014	61	0	0.000
August Henry's	-79.9962	40.4443	27	10	2014	37	4	0.000
Art All Night	-79.9649	40.4712	27	9	2014	117	0	0.000
Caliente Pizza & Draft House	-79.9501	40.4620	27	12	2014	32	6	0.000
Tony's Mansion	-79.9137	40.4721	27	1	2015	276	6	0.000
El Burro	-80.0067	40.4558	27	12	2014	189	2	0.000
X Shadyside	-79.9318	40.4518	27	2	2014	107	2	0.000
Rockys	-80.0849	40.3966	27	1	2014	42	2	0.000
Pizza Milano	-79.9881	40.4385	27	14	2014	73	6	0.000
Waffles, INCaffeinated SouthSide	-79.9692	40.4278	26	7	2014	33	0	0.000
Penn Station East Coast Subs_1	-79.9473	40.4535	26	3	2015	23	5	0.000
Jewish Community Center	-79.9238	40.4376	26	6	2014	275	0	0.000
Proper Brick Oven & Tap Room	-80.0003	40.4435	26	13	2014	204	2	0.000
Cathedral of Learning	-79.9532	40.4443	25	12	2014	87	6	0.000
VIP Styles	-79.9993	40.4392	25	1	2015	186	5	0.414
Piccolo Forno	-79.9643	40.4669	25	12	2014	74	6	0.000
Apple Store, Shadyside	-79.9333	40.4510	25	11	2014	188	2	0.000
Nadine's Bar and Restaurant	-79.9672	40.4264	25	7	2014	205	0	0.000
Nakama Japanese Steakhouse	-79.9822	40.4288	25	18	2014	18	0	0.000
Twelve on Carson	-79.9854	40.4288	24	15	2015	85	0	0.000
Greyhound Bus Lines	-79.9932	40.4444	24	13	2014	85	1	0.000
Children's Museum of Pittsburgh	-80.0070	40.4527	24	14	2015	275	5	0.000
Sibling Center	-79.9529	40.4663	24	1	2014	27	1	0.000
Red White & Blue Thrift Store_1	-80.0655	40.4953	24	2	2014	3	2	0.000
The Porch at Schenley	-79.9531	40.4428	24	13	2015	154	0	0.000
Duquesne Incline_2	-80.0179	40.4394	24	13	2014	82	0	0.000
Hanlon's Cafe	-79.9956	40.4434	24	7	2015	190	6	0.000
Mercurio's Artisan Gelato and Neapolitan Pizza	-79.9330	40.4515	24	9	2014	31	6	0.000
Steel Cactus Mexican Restaurante & Cantina_2	-79.9793	40.4287	24	14	2015	153	4	0.000
Rite Aid_1	-79.9335	40.4513	24	1	2014	51	5	0.000
McCormick & Schmick's_1	-79.9998	40.4412	24	4	2014	272	2	0.000
Cultural District	-79.9989	40.4434	23	10	2014	133	2	0.000
Hyde Park Steakhouse	-80.0080	40.4462	23	10	2014	49	2	0.000
Starbucks_17	-80.0020	40.4427	23	12	2014	312	0	0.000
Cioppino	-79.9829	40.4540	23	8	2014	150	0	0.000
Market District Supermarket	-79.9348	40.4566	23	5	2015	84	3	0.000
Carnegie Library of Homestead	-79.9028	40.4070	23	5	2014	27	0	0.000
China Buffet	-79.9176	40.4584	23	4	2014	154	3	0.000
Kuhn's Market	-80.0436	40.4000	23	6	2014	277	0	0.000
Chipotle Mexican Grill_2	-79.9923	40.4408	23	12	2014	75	1	0.000
Pretty Kitty	-79.8955	40.4088	23	1	2014	117	0	0.390
Mitchell's Fish Market	-79.9178	40.4089	23	9	2014	45	5	0.000
Erin's fine foods Deli	-80.0002	40.4417	23	2	2015	187	2	0.184
Everyday Noodles	-79.9202	40.4382	23	17	2014	158	0	0.000
Jerry's Records	-79.9232	40.4326	22	9	2014	52	5	0.000
Three Rivers Arts Festival	-80.0019	40.4381	22	15	2015	158	6	0.250
Starbucks_8	-79.9395	40.4610	22	8	2014	77	5	0.000
by Hilton Hotel & Suites Pittsburgh Downtown	-79.9939	40.4406	22	6	2015	196	5	0.000
Cattivo	-79.9616	40.4725	22	4	2014	86	4	0.016
Park Bruges	-79.9206	40.4761	22	10	2014	7	6	0.000
DoubleTree by Hilton Hotel Pittsburgh	-80.0590	40.4185	22	8	2015	274	4	0.000
Port Authority Wood Street Station	-79.9996	40.4422	22	5	2014	204	4	0.137
Squirrel Hill Tunnel_1	-79.9165	40.4264	22	8	2015	189	3	0.000
Waterfront Trail	-79.9133	40.4069	22	1	2014	182	6	0.000
Point Brugge Caf	-79.9139	40.4501	22	11	2014	277	0	0.000
salud	-79.9349	40.4512	21	1	2014	291	6	0.000
Squirrel Hill Shopping District	-79.9229	40.4380	21	2	2014	144	5	0.000
1311	-79.9848	40.4288	21	10	2014	39	0	0.000
Lounge 7101	-79.8985	40.4579	21	1	2014	74	0	0.000
Sidelines Bar And Grill	-79.9725	40.4854	21	5	2014	30	4	0.000
Ephesus Pizza_1	-80.0025	40.4398	21	1	2014	72	5	0.000
The Manor Theatre	-79.9228	40.4372	21	17	2014	82	0	0.061
Waterworks Cinema	-79.8937	40.4899	21	9	2014	109	6	-0.027
Highmark Stadium	-80.0100	40.4362	21	7	2015	185	6	-0.016
21st Street Coffee and Tea_1	-79.9844	40.4517	21	8	2014	43	3	0.000
Page Dairy Mart	-79.9558	40.4112	21	11	2015	87	6	0.000
The Coffee Tree Roasters_1	-80.0496	40.3888	21	4	2015	187	6	0.000
Port Authority Allegheny Station_1	-80.0175	40.4480	21	6	2014	204	2	0.152
Cavo	-79.9845	40.4514	21	11	2014	131	0	0.009
Il Tetto	-79.9965	40.4442	21	9	2014	65	6	0.000
LongHorn Steakhouse	-79.9188	40.4043	21	6	2015	82	0	0.000
The Milk Shake Factory	-79.9817	40.4288	21	14	2014	83	3	-0.187
Mt. Ararat Baptist Church	-79.9145	40.4621	21	2	2014	74	0	0.000
Pittsburgh, PA_1	-79.9945	40.4411	20	12	2015	189	4	0.000
Roberts Engineering Hall	-79.9472	40.4425	20	1	2014	30	1	0.000
Little Asia	-79.9486	40.4458	20	3	2014	63	2	0.000
Uncle Sam's Subs	-79.8929	40.4892	20	5	2015	276	4	0.000
Mexican Restaurant	-80.0022	40.4410	20	8	2015	189	1	0.000
The Original Gab & Eat Restaurant	-80.0834	40.3979	20	6	2014	147	6	0.198
GetGo_4	-79.9620	40.4688	20	3	2014	33	0	0.000
Starbucks_5	-79.9609	40.4376	20	6	2015	188	2	0.000
Bruegger's Bagel Bakery_2	-79.9967	40.4427	20	7	2014	184	4	0.000
Alpha Chi Omega	-79.9419	40.4449	20	2	2014	33	0	0.000
Lotus Food	-79.9862	40.4496	20	7	2015	25	0	0.000
99 Bottles	-80.0823	40.3987	20	5	2014	25	0	0.000
Gaucho Parilla Argentina	-79.9874	40.4490	20	13	2015	156	4	0.000
Tad's on E. Carson	-79.9871	40.4287	20	5	2014	74	6	0.000
The Coffee Tree Roasters_2	-79.9156	40.4566	19	8	2014	37	6	0.000
The Saloon of Mt. Lebanon	-80.0446	40.3821	19	12	2014	311	6	0.000
UC Gymnasium	-79.9417	40.4433	19	2	2014	56	2	0.000
La Prima Espresso Company	-79.9831	40.4516	19	6	2014	74	6	0.000
Italian Village Pizza_1	-79.8870	40.4878	19	6	2015	85	4	0.000
Carnegie Coffee Co	-80.0863	40.4077	19	5	2014	48	0	0.000
Duquesne Towers	-79.9888	40.4355	19	1	2014	83	4	0.000
Rankin Municipal Building	-79.8803	40.4128	19	2	2014	123	3	0.000
Thin Man Sandwich Shop	-79.9840	40.4521	19	6	2014	82	0	0.000
Wean Hall	-79.9462	40.4428	19	3	2014	50	5	0.000
Campbell's Run Road	-80.0902	40.4069	18	1	2014	35	2	0.000
941 Saloon	-79.9963	40.4432	18	9	2014	187	0	0.000
CCAC Forester Student Services Center	-80.0148	40.4500	18	1	2014	44	4	0.000
Highland Park Club	-79.9256	40.4744	18	3	2014	48	5	0.000
Yuva India Indian Eatery	-79.9487	40.4449	18	7	2014	95	6	0.000
Thai Me Up	-79.9732	40.4271	18	7	2014	282	5	0.000
American Carpatho Russian Club	-79.8796	40.4129	18	1	2014	120	3	0.000
Pump House	-79.8907	40.4082	18	1	2014	126	0	0.000
Salem's Market & Grill	-79.9737	40.4583	18	9	2014	29	2	0.000
K. Leroy Irvis Science Center	-80.0152	40.4495	18	2	2014	20	2	0.000
The Pittsburgh Popcorn Company_1	-79.9829	40.4515	18	11	2014	353	5	0.000
Aiello's Pizza	-79.9231	40.4331	18	9	2014	3	5	0.000
The Salvation Army Wpa Dhq	-80.0900	40.4181	18	1	2014	58	4	0.000
Lava Lounge	-79.9744	40.4285	18	11	2014	361	6	0.000
grit & grace	-80.0022	40.4416	18	10	2014	186	0	0.289
Home Sweet Home	-79.8801	40.4086	18	2	2015	81	0	0.300
The Beer Company	-79.8701	40.4043	18	11	2015	87	6	0.000
Petersen Events Center	-79.9623	40.4438	18	15	2014	60	6	0.000
DNA Compound	-79.9596	40.4760	18	1	2014	69	1	0.000
Homestead, PA_2	-79.9060	40.4073	18	1	2014	73	5	0.000
Megabus Stop	-79.9958	40.4455	18	7	2014	111	0	-0.302
Luke Wholey's Wild Alaskan Grille	-79.9830	40.4518	17	8	2014	163	4	0.000
Museum	-80.0123	40.4571	17	12	2015	193	0	0.000
Lucky's	-79.9879	40.4487	17	5	2014	159	0	0.000
Jack's Bar	-79.9866	40.4288	17	11	2014	85	1	0.000
Victoria's Secret PINK	-79.9172	40.4078	17	2	2015	291	0	0.000
Cappy's Cafe	-79.9343	40.4511	17	5	2014	92	6	0.000
Allegheny General Hospital	-80.0033	40.4571	17	15	2014	66	6	0.000
Sandcastle Waterpark	-79.9279	40.3977	17	11	2014	184	5	0.000
Peace Love & Zen	-79.9237	40.4622	17	2	2014	119	2	0.560
Union Grill	-79.9487	40.4447	17	7	2014	356	6	0.000
NOLA on the Square	-80.0028	40.4410	17	13	2015	196	0	0.000
Jimmy Wan's Restaurant and Lounge	-79.8746	40.4887	17	3	2014	38	3	0.000
Casey's Draft House	-79.9800	40.4287	17	8	2014	39	6	0.000
Joe Mama's	-79.9569	40.4415	17	4	2014	137	5	0.000
McFadden's	-80.0075	40.4466	17	11	2015	184	5	0.000
Peet's Coffee & Tea_2	-79.9664	40.4269	17	6	2014	82	0	0.000
Bites & Brews	-79.9311	40.4558	17	4	2014	192	6	0.000
Google Pittsburgh	-79.9165	40.4573	17	12	2015	21	5	0.000
Plum Pan-Asian Kitchen	-79.9251	40.4594	17	5	2014	35	6	0.000
Allegheny Coffee & Tea Exchange	-79.9838	40.4513	16	7	2014	31	5	0.000
Fort Pitt Tunnel	-80.0220	40.4335	16	13	2015	194	0	0.000
Linde	-79.8659	40.3971	16	1	2015	275	5	0.000
Brewer's Hotel & Bar	-79.9678	40.4614	16	2	2014	25	0	0.000
Residence Inn	-80.0072	40.4480	16	6	2014	223	1	0.000
Lidia's Italy	-79.9894	40.4486	16	7	2015	87	6	0.000
My Husband's Lair	-79.8786	40.4128	16	1	2014	120	3	0.000
Constellation Coffee	-79.9558	40.4655	16	7	2014	16	5	0.000
Frank B. Fuhrer Wholesale Co_2	-79.9618	40.4228	16	1	2014	24	2	0.000
Diesel Club Lounge	-79.9826	40.4290	16	9	2015	54	0	0.000
Moe's Southwest Grill_2	-80.0953	40.3832	16	8	2014	32	6	0.000
Bigelow Grille	-79.9947	40.4406	16	6	2015	190	4	0.000
Peace, Love & Little Donuts	-79.9841	40.4520	16	9	2014	89	6	0.508
Eggs-R-Us	-80.0555	40.4275	16	6	2014	56	2	0.000
E2	-79.9197	40.4756	16	6	2014	60	6	0.000
Mirror Image Hair Salon	-79.9034	40.4094	16	1	2014	66	3	0.000
Me Lyng_2	-79.9139	40.4065	16	2	2014	73	2	0.000
Patron Mexican Grill	-79.9250	40.4601	16	6	2014	272	0	0.000
Duke's Upper Deck	-79.9129	40.4054	16	4	2014	54	5	0.000
Social Club	-79.9723	40.4589	16	4	2014	151	6	0.000
Marshalls	-79.9076	40.4118	16	3	2014	86	3	0.000
Il Pizzaiolo_2	-80.0025	40.4408	16	9	2014	50	3	0.000
Spin Bartini	-79.9311	40.4557	16	3	2015	277	6	0.000
Maxon Towers	-79.9184	40.4383	15	3	2014	43	3	0.000
Pitts Dogg'n It	-79.9291	40.4575	15	2	2014	22	3	0.000
Arsenal Lanes	-79.9597	40.4710	15	9	2014	4	0	0.000
Rankin Christian Center	-79.8809	40.4131	15	1	2014	126	2	0.000
West End Bridge	-80.0267	40.4465	15	3	2014	88	6	0.000
Flagstaff Hill	-79.9459	40.4402	15	5	2014	185	6	0.000
Pittsburgh, PA_2	-79.9906	40.4416	15	9	2014	241	5	0.000
Shiloh Grill	-80.0071	40.4309	15	9	2015	73	0	0.000
P Town	-79.9489	40.4543	15	3	2014	271	1	0.000
Mardi Gras	-79.9348	40.4512	15	6	2014	118	2	0.000
Westwood Field	-80.0502	40.4312	15	1	2014	103	0	0.000
Ugly Dog Saloon	-80.0556	40.4268	15	2	2014	15	4	-0.327
Steak 'n Shake	-79.9025	40.4142	15	8	2014	72	4	-0.212
Packs & Dogs	-80.0073	40.4300	15	7	2015	185	6	0.000
Beto's Pizza & Restaurant	-80.0304	40.4127	15	5	2014	103	0	0.000
Western Psychiatric Institute and Clinic of UPMC	-79.9596	40.4433	15	1	2015	244	2	0.000
Walmart_2	-80.0961	40.3868	15	4	2014	155	2	0.000
Day West Liberty Subaru	-80.0235	40.4004	15	1	2014	48	1	0.327
Peppi's Old Tyme Sandwich Shop_1	-79.9855	40.4501	15	6	2014	81	2	0.000
Barnes & Noble_2	-79.9158	40.4085	15	7	2014	58	6	0.326
Primanti Bros_2	-79.9568	40.4417	15	7	2015	165	6	0.000
Courtyard By Marriot Valet Parking Lot_1	-79.9954	40.4449	15	1	2014	186	6	0.000
new covenant community church	-79.9068	40.4075	15	1	2014	66	5	0.000
Emiliano's Mexican Restaurant and Bar	-79.9684	40.4276	14	12	2014	10	6	0.000
B Z Bar and Grill	-80.0042	40.4482	14	11	2014	31	0	0.000
Wellsford Cave	-79.9553	40.4353	14	1	2014	94	0	0.000
Ramen Bar	-79.9206	40.4380	14	12	2014	3	6	0.000
Mr. Magic Car Wash_2	-80.0392	40.4049	14	4	2014	17	6	0.000
Bado's Pizza Grill & Ale House	-80.0498	40.3886	14	5	2014	10	6	0.000
Port Authority Station Square Station	-80.0032	40.4315	14	3	2014	70	2	0.134
Taco Bell_1	-79.8950	40.4875	14	4	2014	166	5	0.000
Hollywood Theater	-80.0352	40.3961	14	7	2014	115	0	-0.034
Diamond Market Bar & Grill	-80.0023	40.4410	14	9	2015	151	5	0.215
La Gourmandine Bakery	-79.9588	40.4729	14	4	2014	16	5	0.000
Atria's Restaurant & Tavern_2	-79.8728	40.4892	14	3	2015	52	3	0.000
Prantl's Bakery_1	-79.9328	40.4515	14	5	2015	59	6	0.000
College Hall	-79.9901	40.4367	14	2	2014	73	3	0.000
Nicky's Thai Kitchen_1	-80.0162	40.4521	14	6	2014	273	3	0.000
Rose Tea Caf	-79.9487	40.4448	14	1	2014	303	3	0.000
Parkers Pgh	-80.0351	40.3956	14	2	2015	189	3	0.000
Frank B. Fuhrer Wholesale Co_1	-79.9610	40.4220	14	2	2014	79	1	0.000
Salk Hall	-79.9629	40.4427	14	1	2014	77	5	0.000
Acacia	-79.9759	40.4286	14	8	2014	72	0	0.000
Hyatt Place Pittsburgh/North Shore	-80.0090	40.4467	14	6	2014	46	6	0.000
Walking to The Sky	-79.9428	40.4441	14	4	2014	281	2	0.000
UPMC Montefiore	-79.9620	40.4411	14	3	2015	39	0	0.000
Beehive Coffeehouse	-79.9843	40.4289	14	8	2014	154	3	0.000
Thunderbolt	-79.8649	40.3889	13	5	2014	196	3	0.000
Mullen	-79.9823	40.4549	13	3	2014	105	4	0.000
Giant Eagle_3	-79.8886	40.4253	13	3	2015	155	5	0.000
Trib Total Media	-80.0086	40.4489	13	1	2014	278	0	0.000
Penn Ave Fish Company	-79.9820	40.4524	13	7	2014	97	1	0.000
Courtyard by Marriott Pittsburgh Downtown	-79.9963	40.4444	13	5	2014	131	0	0.000
BRAVO! Cucina Italiana	-79.9171	40.4068	13	7	2015	60	6	0.000
Magee-Women's Hospital of UPMC	-79.9607	40.4369	13	4	2015	251	1	0.000
Centre Massage & Spa	-79.9157	40.4569	13	1	2014	122	3	0.000
Gooski's	-79.9665	40.4569	13	5	2014	341	0	0.000
Wigle Whiskey Garden & Barrel House	-79.9934	40.4593	13	5	2014	148	5	0.000
Big Dog Coffee	-79.9666	40.4258	13	10	2015	68	0	0.000
Midtown Towers	-80.0001	40.4422	13	1	2014	37	2	0.000
A to Z Communications	-79.9953	40.4442	13	1	2014	192	1	0.000
Vet Tech Institute	-80.0003	40.4436	13	1	2014	43	3	0.000
Eclipse Lounge	-79.9647	40.4665	13	4	2014	33	0	0.000
The Rowdy Buck	-79.9842	40.4289	13	8	2014	67	0	0.000
City of Pittsburgh_1	-79.9906	40.4416	13	9	2014	75	0	0.000
P & W BMW	-79.9472	40.4545	13	3	2015	273	3	0.000
Giant Eagle Gym	-79.8681	40.5083	13	2	2014	86	4	0.000
Tram's Kitchen	-79.9558	40.4655	12	6	2014	81	0	0.000
Hemingway's Cafe	-79.9563	40.4422	12	5	2014	74	0	0.000
Fort Pitt Museum	-80.0094	40.4411	12	5	2014	200	6	0.000
Casterly Rock	-79.9696	40.4568	12	1	2015	186	0	0.000
The Rink at PPG Place	-80.0034	40.4397	12	4	2014	19	0	0.000
The Barbers Inn	-79.9239	40.4624	12	1	2014	120	6	0.000
athletica	-79.9331	40.4514	12	3	2014	30	4	0.000
Carnegie Library Music Hall	-79.9026	40.4070	12	4	2014	141	0	0.000
Vietnam's Pho	-79.9867	40.4492	12	5	2015	274	4	0.000
Cricket Wireless Braddock	-79.8751	40.3982	12	1	2014	123	3	0.000
Greyhound Station Parking Garage	-79.9916	40.4456	12	1	2015	189	3	0.000
Schenley Plaza	-79.9528	40.4428	12	6	2014	155	4	0.000
Barre Bee Fit	-79.9360	40.4507	12	4	2014	96	0	0.291
Mon Valley Initiative	-79.9092	40.4080	12	1	2014	101	5	0.000
Monongahela Incline	-80.0057	40.4319	12	10	2015	192	6	0.000
Wheelhouse Bar & Grill	-80.0217	40.4466	12	6	2014	156	6	0.000
Doubleday's Famous Burgers	-80.0025	40.4434	12	3	2015	186	0	0.000
Bob's Diner_1	-80.0856	40.4097	12	3	2014	167	0	0.000
Parlor	-79.9757	40.4569	12	5	2014	200	0	0.000
Astorino	-80.0031	40.4381	12	2	2014	205	4	0.000
The Bagel Factory_1	-79.9487	40.4446	12	4	2014	186	0	0.000
Taco Bell_3	-80.0542	40.4273	12	3	2014	103	3	0.000
Pittsburgh Improv	-79.9148	40.4093	12	5	2015	273	3	0.000
Eat Unique	-79.9489	40.4456	12	4	2014	131	5	0.000
Ace Cash Express	-79.9092	40.4078	12	1	2014	66	5	0.000
Club Zoo	-79.9874	40.4498	12	5	2014	87	5	0.000
Carnegie Museum Of Art	-79.9494	40.4435	12	7	2015	74	0	0.000
Dormont Vision Center	-80.0344	40.3951	12	1	2014	24	2	0.236
Curry on Murray	-79.9231	40.4331	12	5	2014	196	3	0.000
Casa Reyna	-79.9833	40.4517	12	8	2014	251	6	0.000
Deloitte LLP	-80.0036	40.4399	12	1	2014	73	5	0.000
Mount Washington_1	-80.0104	40.4309	11	5	2015	185	6	0.000
The Croatian Home	-79.8789	40.4130	11	1	2014	122	5	0.000
Thunderbird Cafe	-79.9616	40.4694	11	4	2015	276	6	0.000
Byham Theater	-80.0026	40.4439	11	7	2015	189	3	0.000
Pennsylvania Macaroni Company	-79.9837	40.4512	11	9	2014	158	6	0.000
Soho	-80.0045	40.4483	11	7	2014	185	6	0.000
Renaissance Pittsburgh Hotel	-80.0023	40.4438	11	6	2014	55	1	0.000
East End Brewing Company	-79.9115	40.4589	11	7	2014	32	6	0.000
PCO	-80.0126	40.4771	11	1	2015	74	0	0.000
Redbeard's on Sixth	-80.0023	40.4429	11	7	2015	185	0	0.000
Leaf And Bean	-79.9820	40.4521	11	6	2015	151	0	0.000
Just Ducky Tours	-80.0048	40.4338	11	8	2014	181	1	0.000
Up- Modern Kitchen	-79.9337	40.4510	11	1	2014	23	4	0.000
Bottle Knocker Hockey	-79.9897	40.4205	11	1	2014	67	0	0.000
Roundabout Brewery	-79.9570	40.4771	11	4	2015	276	6	0.000
Pittsburgh/greentree	-80.0540	40.4193	11	2	2015	281	4	0.000
Duquesne Student Union	-79.9909	40.4368	11	3	2014	40	5	0.000
Dive Bar	-79.9549	40.4795	11	7	2014	297	6	0.000
Bill's Bar & Burger	-79.9950	40.4439	11	5	2015	192	6	0.000
Chick-fil-A	-79.9079	40.4127	11	4	2015	274	4	0.000
Via Festival	-79.9248	40.4612	11	1	2014	71	3	0.314
Giant Eagle Supermarket_1	-79.9829	40.3655	11	1	2015	74	0	0.000
Kennedy Park Munhall PA	-79.8634	40.3843	11	1	2014	127	3	0.000
Biergarten at the Hotel Monaco	-79.9962	40.4415	11	5	2015	186	0	0.000
West Penn Rec Center	-79.9703	40.4555	10	1	2014	52	5	0.000
Qdoba Mexican Grill_1	-79.8872	40.4867	10	2	2015	278	1	0.000
Ichiban Hibachi & Sushi Bar	-79.8871	40.4880	10	8	2014	47	0	0.000
Chaya Japanese Cuisine	-79.9231	40.4339	10	6	2014	85	4	0.000
McShane Real Estate	-79.9034	40.3855	10	1	2014	37	2	0.000
Pizza Parma	-79.9984	40.4438	10	3	2015	191	4	0.000
NorthShore Area Of Pgh	-80.0014	40.4537	10	1	2014	113	3	0.000
Eastminster Presbyterian Church	-79.9234	40.4631	10	1	2014	120	3	0.000
OZA	-79.9964	40.4441	10	1	2014	59	1	0.000
J&L's Crib	-79.9259	40.4745	10	1	2014	50	3	0.000
Butterjoint	-79.9508	40.4501	10	6	2014	119	5	0.000
Row House Cinema	-79.9610	40.4699	10	4	2015	273	3	-0.028
Fuel and Fuddle	-79.9567	40.4411	10	5	2014	37	2	0.000
Jimmy John's	-79.9811	40.4288	10	5	2014	63	6	0.000
Carhop's	-79.9851	40.4512	10	2	2014	141	3	0.000
Salons	-79.9231	40.4365	10	3	2014	239	4	0.000
TGI Fridays_1	-79.9901	40.4388	10	9	2014	196	3	0.000
Work PH 2	-80.0629	40.4735	10	1	2014	119	2	0.000
Carnegie Music Hall	-79.9500	40.4435	10	6	2014	52	6	0.016
The Shop In East Liberty	-79.9241	40.4629	10	1	2014	71	2	0.289
Carmella's Plates & Pints	-79.9787	40.4286	10	7	2015	277	0	0.000
Gateway Clipper Fleet	-80.0072	40.4360	10	7	2015	273	0	0.000
Bob's Garage	-79.8723	40.4896	10	4	2014	103	0	0.000
Noodles & Company	-80.0020	40.4410	10	4	2015	188	2	0.000
Bruegger's Bagel Bakery_3	-79.9804	40.4289	10	4	2014	55	1	0.000
Giant Eagle_1	-80.0002	40.4514	10	3	2014	40	0	0.000
Giant Eagle_4	-79.9771	40.4308	10	5	2014	79	4	0.000
East Liberty Family Health Care Center	-79.9228	40.4629	10	1	2014	124	1	0.452
William Penn Tavern	-79.9339	40.4515	10	6	2014	54	0	0.000
Chipotle Mexican Grill_3	-80.0601	40.3915	10	4	2014	24	5	0.000
Bar Nine	-79.9972	40.4444	10	1	2014	37	0	0.000
Pipeline Coaster_2	-79.8770	40.4083	10	1	2014	120	3	0.000
Bat's Barber Shop	-79.9264	40.4621	10	2	2014	78	3	0.000
Joe's Basement Sweatshop	-80.0517	40.4987	10	2	2015	195	1	0.000
Sal's City Deli	-80.0002	40.4425	10	5	2014	29	3	0.000
The Waterfront	-79.9152	40.4081	10	3	2015	277	0	0.000
Orangetheory Fitness	-79.9270	40.4622	10	1	2015	187	1	0.259
LeMont	-80.0177	40.4378	10	5	2015	151	6	0.000
Roberto Clemente Bridge	-80.0033	40.4451	10	6	2014	122	2	0.000
Maury's Pad_2	-80.0024	40.4408	10	2	2014	130	6	0.000
Foli's Pizza	-79.8748	40.4288	10	4	2014	180	1	0.000
Coca Cafe	-79.9641	40.4672	10	8	2014	116	0	0.000
Crazy Mocha_6	-79.9656	40.4262	10	5	2014	247	5	-0.309
Kelly-O's	-79.9815	40.4536	10	5	2014	30	4	0.000
Primanti Bros_3	-80.0995	40.4444	10	4	2014	109	0	0.000
Wiggy's Wings	-80.0552	40.4273	9	2	2014	156	6	0.000
New Light Congregation	-79.9163	40.4380	9	1	2014	43	3	0.000
Sonny's Tavern	-79.9475	40.4580	9	3	2015	81	0	0.000
Atria's Restaurant and Tavern	-80.0040	40.4472	9	7	2014	194	0	0.000
Port Authority Allegheny Station_2	-80.0244	40.4486	9	1	2014	71	3	0.157
India On Wheels	-79.9550	40.4449	9	2	2014	31	5	0.000
Fullbody Fitness Club	-79.9820	40.3664	9	1	2015	6	2	0.231
Seagate Building	-79.9929	40.4481	9	3	2015	194	1	0.000
S. W. Randall Toyes & Giftes	-79.9973	40.4420	9	4	2014	93	4	0.000
Rose Tea Cafe	-79.9201	40.4380	9	8	2014	1	6	0.000
Bob's Sub	-80.0000	40.4381	9	1	2014	45	1	0.000
Arts Tavern	-79.9742	40.4576	9	1	2014	53	6	0.000
Starbucks_16	-80.0457	40.4191	9	4	2015	186	0	0.000
August Wilson Center	-79.9957	40.4434	9	2	2014	133	0	0.000
Springhill Suites by Marriott Pittsburgh Bakery Square	-79.9153	40.4566	9	5	2014	33	1	0.000
Goodwill / ComputerWorks	-79.9574	40.4798	9	2	2014	171	3	0.000
Sphinx Hookah Bar & Cafe	-79.9537	40.4381	9	6	2014	77	5	0.000
Uno Pizzeria & Grill	-79.9141	40.4112	9	3	2014	2	5	0.000
Sheraton Station Square Hotel	-80.0063	40.4349	9	8	2014	45	4	0.000
Andrew's Steakhouse	-80.0219	40.4466	9	3	2014	57	1	0.000
Saloon_2	-79.9339	40.4511	9	9	2014	138	0	0.000
Fifth Avenue Place	-80.0034	40.4418	9	6	2015	193	0	0.000
Nicholas Coffee & Tea Company	-80.0029	40.4411	9	4	2014	99	3	0.000
Otter And Wolf Den	-79.9738	40.4808	9	2	2014	39	6	0.000
Anthrocon dealers den	-79.9964	40.4457	9	2	2015	193	0	0.000
The Crib	-79.9025	40.4005	9	1	2014	276	3	0.000
Kevins Love Dumpster	-79.8911	40.4870	9	1	2015	187	1	0.220
Zen Asian Diner	-79.9572	40.4783	9	2	2015	31	6	0.000
Gene's Place	-79.9562	40.4394	9	3	2014	101	5	0.000
The Cultural's Elite Salon & Barber Shop	-79.9961	40.4442	9	2	2014	24	5	0.000
Belvedere's	-79.9618	40.4691	9	7	2014	89	0	0.000
Silky's Sports Bar and Grill	-79.9229	40.4370	9	8	2014	54	0	0.000
Redfin Blues	-79.9773	40.4631	9	6	2014	117	0	0.000
Max's Allegheny Tavern	-79.9998	40.4552	9	9	2014	37	0	0.000
American Farriers Journal Booth	-79.9949	40.4442	9	1	2014	127	3	0.000
TMHQ_1	-80.0547	40.4214	9	1	2014	72	1	0.000
Tony's Disco Stick HideOut	-79.9920	40.4487	9	1	2014	95	6	0.000
Bobby Hendrix	-79.9768	40.4286	9	7	2014	43	0	0.000
Phantom of the Attic : Comics	-79.9486	40.4449	9	2	2014	13	2	0.000
Peppi's Old Tyme Sandwich Shop_2	-80.0175	40.4517	9	7	2014	25	6	0.000
The Cut	-79.9431	40.4426	9	1	2014	31	1	-0.296
Breaker's Pool Hall	-80.0347	40.3954	9	4	2015	191	6	0.000
Dunham's Sports	-79.8908	40.4883	9	2	2015	276	6	0.000
Sterling St	-79.9696	40.4164	9	1	2014	36	0	0.000
Dinette	-79.9256	40.4596	9	5	2014	10	1	0.000
Blush Gentlemen's Club	-79.9985	40.4443	9	4	2015	205	5	0.000
one thirty one east	-80.0862	40.4081	9	3	2014	203	6	0.000
Bartram House Bakery	-79.9682	40.4274	9	4	2015	188	2	0.000
William Pitt Union	-79.9549	40.4435	9	7	2014	301	5	0.000
Pusadee's Garden	-79.9519	40.4826	9	5	2015	184	5	0.000
Home_3	-79.9473	40.4246	9	1	2014	35	2	0.000
Eide's Entertainment	-79.9931	40.4453	9	4	2015	155	4	0.318
Cure	-79.9512	40.4828	9	5	2014	81	0	0.000
Kickback Pinball Cafe	-79.9598	40.4713	9	2	2014	59	6	0.000
Federated Investors_1	-79.9945	40.4449	9	1	2014	118	2	0.000
Venture Street Exit_1	-80.0091	40.4843	9	1	2014	123	6	0.000
Happy Berry Frozen Yogurt	-79.9328	40.4515	9	3	2014	127	3	0.339
The Original Hot Dog Shop	-79.9565	40.4421	9	5	2015	192	6	0.212
Station Square East Parking Lot	-80.0018	40.4318	9	3	2015	210	3	0.000
Western Pennsylvania Hospital	-79.9463	40.4610	9	4	2014	47	0	0.000
Community Thrift Center	-80.0537	40.4295	9	1	2014	22	0	0.000
McDonald's_1	-79.8897	40.4870	9	2	2015	190	4	0.000
Cafe & Espresso Bar	-79.9188	40.4748	9	5	2014	94	0	0.000
Cambria Suites	-79.9881	40.4402	8	6	2014	283	6	0.000
Wings Over Pittsburgh	-79.9698	40.4277	8	3	2015	276	6	0.000
BNY Mellon Center	-79.9954	40.4399	8	3	2015	196	3	0.000
Barnes & Noble_1	-79.8933	40.4886	8	5	2014	178	6	0.317
Toonseum	-79.9963	40.4432	8	4	2014	53	6	0.000
Sienna Sulla Piazza	-80.0026	40.4411	8	8	2014	37	6	0.000
Mellon Square	-79.9974	40.4408	8	5	2014	192	5	0.000
mezzo	-79.9965	40.4443	8	3	2015	193	0	0.000
Brighton Hot Dog Shoppe	-80.0572	40.4268	8	2	2014	36	2	0.000
Chinatown Inn	-79.9974	40.4374	8	4	2014	108	5	0.000
Howlers Coyote Cafe	-79.9516	40.4631	8	4	2014	172	6	0.000
Starbucks_19	-79.9221	40.4607	8	2	2014	38	5	0.000
Brentwood Library	-79.9751	40.3750	8	2	2015	243	1	0.000
Sammy's Famous Corned Beef	-79.9981	40.4429	8	4	2014	53	6	0.000
Children's Hospital of Pittsburgh of UPMC Emergency Department	-79.9536	40.4671	8	3	2014	69	2	-0.181
Thrill Mill	-79.9236	40.4618	8	2	2014	10	6	0.323
Perl	-80.0030	40.4411	8	5	2015	183	5	0.000
Cork Factory Lofts	-79.9830	40.4547	8	2	2014	43	3	0.000
Starbucks_9	-80.0958	40.3796	8	4	2014	32	6	0.000
IV Seasons Car Wash	-79.8838	40.4556	8	1	2014	75	6	0.000
Buckhead Saloon	-80.0061	40.4343	8	8	2014	75	6	0.000
Franco's nail salon	-79.8828	40.4432	8	2	2014	91	2	0.000
Ohio City Pasta	-79.9805	40.4536	8	1	2014	92	3	0.000
Sean's Towing	-79.9616	40.3666	8	1	2015	32	0	0.000
Original Oyster House	-80.0020	40.4409	8	8	2014	14	5	0.262
Backstage Bar	-80.0005	40.4433	8	2	2014	16	0	0.000
Hamerschlag Hall	-79.9467	40.4423	8	2	2014	31	5	0.000
Graduate School of Public Health	-79.9591	40.4426	8	2	2014	152	1	0.000
Andy Warhol Bridge	-80.0014	40.4462	8	6	2015	66	6	0.000
McDonald's_3	-80.0931	40.3863	8	1	2014	282	4	0.000
Small Seeds Development Inc	-79.9236	40.4627	8	1	2014	122	5	0.000
Smiling Banana Leaf	-79.9198	40.4758	8	4	2014	25	6	0.325
Crepes Parisiennes	-79.9488	40.4460	8	3	2015	241	5	0.000
Playmor Bowl	-79.9083	40.3642	8	4	2014	18	0	0.000
CCAC Milton Hall	-80.0139	40.4494	8	1	2014	44	4	0.000
Coffee Tree Roasters_2	-79.9329	40.4515	8	5	2014	78	4	0.000
Rohrich Lexus	-80.0221	40.4017	8	1	2014	284	6	0.000
Theme	-79.9838	40.3649	8	1	2014	74	6	0.000
Hot Metal Bridge	-79.9612	40.4283	8	7	2014	156	5	0.000
Schenley Park	-79.9417	40.4344	8	3	2015	185	6	0.000
Sake	-79.9650	40.4273	8	4	2014	88	0	0.000
Hitchhiker Brewing Co	-80.0408	40.3777	8	6	2014	151	6	0.000
Northside Urban Pathways Charter School	-79.9973	40.4443	8	1	2014	37	2	0.000
Rowdy BBQ	-79.9827	40.3703	8	3	2014	122	6	0.000
Bus Stop Forbes & Morewood	-79.9432	40.4447	8	1	2014	31	0	-0.216
Frost & Co	-79.9998	40.4426	8	1	2014	66	2	0.000
Convention Center Riverfront Plaza	-79.9966	40.4465	8	3	2015	194	1	0.000
Hotel Monaco Pittsburgh	-79.9966	40.4414	8	5	2015	179	0	0.000
North Oakland	-79.9504	40.4539	8	2	2014	142	0	0.000
North Shore Deli	-79.9994	40.4538	8	2	2014	134	3	0.000
Sorrells Engineering and Science Library	-79.9461	40.4427	8	2	2014	32	3	0.000
Phillips Rec Center	-79.9909	40.3915	8	2	2014	42	3	0.000
Charlie Murdochs Dueling Piano Rock Show	-79.9882	40.4289	8	4	2014	82	0	0.000
EQT Plaza	-80.0008	40.4423	8	1	2014	52	1	0.000
U.S. Steel Tower Plaza	-79.9954	40.4409	8	4	2014	51	6	0.000
CAVO	-79.9845	40.4514	8	5	2015	24	6	0.000
Coach's Bottleshop & Grille	-80.0433	40.4004	8	3	2014	131	1	0.000
Valero Fuel	-79.8657	40.4914	8	1	2014	116	6	0.000
Pamela's P&G Diner_3	-79.9574	40.4412	8	7	2015	77	6	0.000
Garage Door	-79.9569	40.4406	8	5	2014	141	3	0.000
Mr. Magic Car Wash_1	-79.9828	40.3703	8	2	2014	64	6	0.000
Kaufmann Medical Bldg	-79.9608	40.4404	8	2	2015	187	1	0.000
Vincent's Pizza	-80.0507	40.4214	8	4	2014	42	2	0.000
Alphalab Gear	-79.9235	40.4618	8	3	2014	17	5	0.000
Gates and Hillman Centers	-79.9445	40.4438	8	5	2015	87	1	0.000
Ice 9 tattoo	-79.9717	40.4282	7	2	2015	274	4	0.000
Stay tuned distillery	-79.8956	40.4079	7	2	2014	204	3	0.000
Firewater Restoration	-79.9812	40.4297	7	1	2014	118	1	0.000
UPMC Center	-79.9598	40.4250	7	2	2015	23	1	0.000
Dave & Buster's	-79.9143	40.4096	7	4	2015	73	6	0.000
The Exterminator	-79.8671	40.3891	7	4	2014	27	1	0.000
Soldiers & Sailors National Military Museum Memorial	-79.9563	40.4451	7	3	2014	123	2	0.000
U.S. Steel Tower	-79.9948	40.4414	7	4	2015	156	1	0.000
Lefty's	-79.9835	40.4516	7	4	2015	76	2	0.000
Branding Brand_1	-79.9725	40.4286	7	2	2014	23	4	0.000
SpringHill Suites_1	-79.9618	40.4267	7	6	2014	157	6	0.000
Starbucks_11	-80.0441	40.3996	7	5	2015	193	0	0.000
Diamond Pizza	-80.0045	40.4473	7	2	2014	50	2	0.324
Escape Room Pittsburgh	-79.9400	40.4262	7	4	2015	311	6	0.195
Bagel Factory	-79.9301	40.4566	7	1	2015	190	4	0.000
Courtyard by Marriott Pittsburgh Shadyside	-79.9395	40.4559	7	3	2014	77	2	0.000
Port Authority North Side Station	-80.0088	40.4480	7	2	2015	274	4	0.126
NovaCare Rehabilitation_1	-79.9183	40.4378	7	1	2014	307	1	0.000
Spring Carnival Midway	-79.9438	40.4455	7	3	2014	102	6	0.000
Scott Township Park	-80.0868	40.3833	7	2	2014	151	6	0.000
Riley's Pour House	-80.0851	40.4086	7	4	2014	60	6	0.000
Amtrak: Pittsburgh	-79.9916	40.4458	7	3	2014	223	6	0.000
Three Rivers Rowing	-79.9753	40.4693	7	2	2014	295	3	0.000
I'm at	-80.0032	40.4537	7	1	2014	62	1	0.000
Park House	-80.0015	40.4533	7	4	2014	86	3	0.000
South Side Works	-79.9658	40.4277	7	6	2015	194	1	0.000
Union Pig and Chicken	-79.9240	40.4631	7	4	2014	117	0	0.000
Black Widow	-79.8666	40.3893	7	3	2014	205	4	0.000
Ambassador Apartments	-79.8674	40.4433	7	1	2014	80	5	0.000
Pizza_1	-79.9253	40.4603	7	2	2015	185	6	0.000
Deutschtown Music Festival	-80.0001	40.4544	7	3	2014	192	6	0.325
Bella Notte	-79.9841	40.4509	7	3	2014	186	6	0.000
Silver Palace	-80.0039	40.3775	7	2	2014	137	2	0.000
Thai Spoon	-80.0346	40.3952	7	4	2014	47	6	0.000
The Original Pancake House	-80.0740	40.3915	7	6	2014	98	2	0.231
Fitness 19	-80.0659	40.3959	7	1	2015	276	6	0.259
Aladdin's Eatery_2	-80.0442	40.3819	7	6	2014	82	2	0.000
Ali Baba	-79.9488	40.4452	7	4	2014	297	5	0.000
Grant Street Transportation Center	-79.9933	40.4447	7	3	2015	190	4	0.200
Excuses Bar & Grill	-79.9687	40.4274	7	6	2014	67	6	0.000
East End Food Co-Op	-79.8957	40.4483	7	6	2014	363	1	0.000
Anthony's House Of Labieja	-79.9361	40.4639	7	1	2015	276	6	0.000
GNC_2	-79.9818	40.3666	7	1	2015	30	5	0.000
Dominic's Famous Deli & Bottle Shop	-80.0041	40.4478	7	3	2014	280	3	0.000
Tamarind Flavor of India	-79.9518	40.4512	7	5	2014	60	6	0.000
Qdoba Mexican Grill_2	-79.9473	40.4537	7	3	2014	285	0	0.000
Qdoba Mexican Grill_3	-79.9657	40.4264	7	5	2014	24	1	0.000
J.E. Stuckerts	-79.9801	40.4373	7	1	2014	127	3	0.000
Josh Steel	-79.8718	40.4009	7	1	2014	119	2	0.000
The Blind Pig Tavern	-79.9739	40.4285	7	3	2014	58	4	-0.287
Mullen's on Carson	-79.9760	40.4283	7	3	2014	67	5	0.000
Carnegie Library Of Pittsburgh, East Liberty Branch	-79.9264	40.4608	7	2	2014	41	1	0.246
Papa J's Ristorante	-80.0850	40.4080	7	4	2014	27	6	0.000
Smokin Joe's	-79.9775	40.4287	7	7	2014	54	0	0.000
Istanbul Sofra_1	-79.8975	40.4396	7	5	2015	145	1	0.000
Handmade Arcade	-79.9973	40.4453	7	5	2014	340	6	0.000
Mexi Casa	-80.0369	40.3930	7	1	2015	276	6	0.000
Dormont, PA	-80.0331	40.3959	7	3	2014	152	1	0.000
Fred's Fortress Of Solitude	-79.9696	40.4265	7	1	2014	47	5	0.000
Verde Mexican Kitchen & Cantina	-79.9327	40.4643	7	4	2014	125	5	0.000
Rockwell Hall	-79.9937	40.4377	7	2	2015	85	4	0.000
Grice Chiropratic	-80.0201	40.4386	7	1	2014	27	1	0.000
ACES 2015 National Conference	-80.0060	40.4406	6	1	2015	84	3	0.000
Thornburg_2	-80.0832	40.4332	6	1	2014	196	1	0.000
Church of the Ascension	-79.9474	40.4487	6	2	2014	65	0	0.000
Static Nightclub	-79.9870	40.4500	6	3	2014	116	0	0.000
Cupka's Cafe II	-79.9723	40.4282	6	3	2015	184	0	0.000
Shop 'n Save_3	-80.0284	40.3690	6	3	2014	145	0	0.337
12 avenue playground	-79.8992	40.4059	6	1	2014	192	4	0.000
Shop 'n Save_1	-79.9649	40.3896	6	2	2015	152	1	0.314
CVS Pharmacy_2	-80.0013	40.4406	6	4	2014	153	1	0.000
The Original Fish Market	-79.9946	40.4443	6	4	2014	104	1	0.226
Washington Rd	-79.9579	40.4944	6	1	2014	234	4	0.000
Meade Products Inc	-79.8893	40.4464	6	1	2014	63	2	0.000
Bruegger's Bagel Bakery_1	-79.9959	40.4402	6	4	2014	151	4	0.000
Grand Circuit Booth	-79.9949	40.4442	6	1	2014	123	6	0.333
Otten Castle	-79.9361	40.4639	6	1	2014	38	1	0.000
Six Penn Kitchen	-80.0022	40.4428	6	6	2014	80	5	0.000
Park Place Pub	-79.9209	40.4762	6	2	2014	71	3	0.000
The Tower of London	-80.0591	40.5049	6	1	2015	187	1	0.000
Construction Junction	-79.8984	40.4498	6	4	2014	66	0	0.000
Cafe io	-80.0497	40.3888	6	2	2014	32	0	0.000
2 PNC Plaza	-80.0007	40.4418	6	3	2014	37	3	0.000
Muzzys II	-80.0877	40.3922	6	1	2014	291	6	0.000
East Waterfront Drive	-79.8904	40.4082	6	1	2014	53	6	0.000
powered by Reebok	-79.9894	40.4395	6	1	2015	290	4	0.000
Fort Duquesne Bridge	-80.0096	40.4416	6	3	2015	193	0	0.000
Swisshelm PARK	-79.9019	40.4208	6	1	2014	175	3	0.000
Hampton Inn	-80.0540	40.4193	6	2	2014	30	4	0.000
Triangle Bar & Grill	-79.8880	40.4177	6	2	2014	61	1	0.000
O'Leary's Southside Cafe	-79.9837	40.4288	6	3	2014	157	6	0.000
Steel Revolution	-79.9345	40.4512	6	1	2014	315	2	0.000
Panthro Fitness	-79.9711	40.4603	6	1	2014	62	1	0.264
The Children's Institute	-79.9198	40.4433	6	2	2014	19	1	0.000
Hoodstock	-79.8810	40.4171	6	1	2014	127	2	0.000
Big Jims Restaurant & Bar	-79.9497	40.4270	6	5	2014	64	3	0.000
Jitters Cafe	-79.9324	40.4518	6	2	2015	276	6	0.000
Busy Beaver	-80.0056	40.3757	6	1	2014	115	1	0.000
Waterworks Mall	-79.8892	40.4878	6	5	2014	196	3	0.000
Three Rivers Regatta	-80.0096	40.4421	6	2	2015	184	0	0.000
Eastminster Fitness Center	-79.9235	40.4629	6	1	2014	71	2	0.259
Braddock, PA	-79.8662	40.4032	6	1	2014	135	4	0.000
Bus Stop at Forbes & Morewood	-79.9432	40.4447	6	2	2014	161	2	-0.196
Homestead Fire Company	-79.9096	40.4066	6	1	2014	66	5	-0.286
Pittsburgh Penguins Foundation Silent Auction	-79.9904	40.4399	6	1	2014	82	0	0.000
Carnegie Library Of Pittsburgh_2	-79.9974	40.4414	6	2	2014	39	6	0.000
Grandview Buffet	-80.0219	40.4466	6	2	2014	93	0	0.000
Peet's Coffee & Tea_1	-79.9818	40.3662	6	3	2014	64	3	0.000
Lexus Club_2	-79.9900	40.4400	6	3	2014	295	4	0.000
KaMei	-79.9230	40.4325	6	3	2014	88	0	0.000
Flynn's Arcade	-80.0558	40.4723	6	2	2014	109	6	0.000
Pittsburgh Integrative Medicine	-79.9289	40.4576	6	1	2014	349	1	0.000
Raceway Shopping Plaza	-80.0947	40.3863	6	1	2014	148	3	0.000
Coppertops	-79.9748	40.4284	6	3	2014	51	4	0.000
apis meadery	-80.0851	40.4085	6	3	2014	325	6	0.000
Hillman Cancer Center	-79.9428	40.4550	6	4	2015	22	2	-0.386
Covenant Church of Pittsburgh	-79.8632	40.4538	6	1	2014	54	0	0.000
China Buffet King	-80.0528	40.4283	6	3	2014	115	5	0.000
Keystone Rehabilitation Systems	-79.9074	40.4137	6	1	2014	99	3	0.000
Speakeasy	-79.9968	40.4407	6	5	2014	215	0	0.000
Lake Elizabeth	-80.0120	40.4534	6	1	2015	193	0	0.000
South Side Dog Park	-79.9765	40.4322	6	3	2014	73	1	0.000
Kaleidoscope Cafe	-79.9630	40.4726	6	2	2014	24	5	0.000
Landis's Domain	-79.9920	40.4184	6	1	2014	62	1	0.000
Pido's Pub	-79.9003	40.4015	6	2	2014	132	1	0.000
Traffic	-80.0503	40.4207	6	2	2014	109	3	0.000
Italian Restaurant	-80.0043	40.4336	6	3	2015	135	0	0.000
New Amsterdam	-79.9593	40.4721	6	3	2015	153	2	0.000
Social Security Administration	-79.9976	40.4439	6	2	2014	77	2	0.276
The Dor-Stop Restaurant	-80.0348	40.3959	6	3	2015	290	6	0.000
Eleven	-79.9932	40.4461	6	3	2014	199	0	0.000
Capri Pizza	-79.9099	40.4066	6	1	2014	25	0	0.000
Bombay Giro	-79.9952	40.4439	6	1	2015	191	0	0.000
Parkway West	-80.0574	40.4172	6	3	2014	134	3	0.000
Queen Nails	-79.8686	40.3836	6	2	2015	196	3	0.000
National Robotics Engineering Center	-79.9651	40.4728	6	2	2014	86	3	0.000
Taco Bell_4	-80.0186	40.4498	6	6	2014	97	1	0.000
The Whip	-79.8674	40.3890	6	3	2014	205	5	0.000
Garfield's Nightmare	-79.8638	40.3865	6	3	2015	158	6	0.000
The Allegheny Wine Mixer	-79.9516	40.4825	6	5	2015	80	6	0.000
Paint Monkey	-79.9637	40.4730	6	2	2014	24	5	0.000
Smithfield/Liberty Garage	-79.9974	40.4423	6	2	2014	114	4	0.000
Dish Osteria and Bar	-79.9822	40.4276	6	4	2015	193	0	0.000
Thai Place II	-79.8856	40.4870	6	2	2015	181	2	0.000
Smoke Cigar Shop and Lounge	-80.0954	40.3823	6	4	2014	153	2	0.000
Osteria	-79.9827	40.4546	6	1	2014	99	3	0.000
Skyview Pools	-79.9270	40.3708	6	1	2015	155	4	0.000
Goodyear Auto Service Center	-79.9236	40.4639	6	1	2014	120	3	0.000
Walnut Grill_3	-80.0946	40.3823	6	4	2014	35	2	0.000
West End Overlook	-80.0340	40.4459	6	4	2014	179	0	0.000
Mowing the Lawn	-80.0032	40.4597	6	1	2015	184	5	0.000
South Hills	-80.0444	40.3812	6	4	2014	60	0	0.000
Farmer's Market_1	-80.0026	40.4407	6	4	2014	177	4	0.000
Monterey Bay Fish Grotto_2	-80.0212	40.4389	6	5	2014	37	0	0.000
PAPA World Headquarters	-80.0950	40.4001	6	2	2014	87	5	0.000
Old Town Buffet	-80.0068	40.4115	6	3	2014	14	3	0.000
Squirrel Hill_1	-79.9242	40.4357	6	3	2015	282	5	0.000
Walnut Grove	-80.0482	40.3822	6	2	2014	147	2	0.000
The Priory	-79.9982	40.4523	6	3	2014	156	1	0.000
Phantom's Revenge	-79.8660	40.3888	6	4	2014	146	1	-0.383
Crazy Mocha_3	-79.9820	40.3661	6	2	2015	250	1	-0.286
Convenience Store	-80.0957	40.4011	6	1	2014	181	1	0.000
GetGo Gas Station_3	-79.8837	40.4880	6	2	2015	191	5	0.000
Crazy Mocha_7	-79.9947	40.4441	6	1	2015	191	0	-0.286
Dukes Pub and Pizza	-80.0369	40.3764	6	2	2015	87	6	0.000
PNC Bank	-79.9806	40.4287	6	1	2014	55	1	0.000
Lili Coffee Shop	-79.9658	40.4575	6	2	2014	93	3	0.000
Pittsburgh Athletic Association	-79.9545	40.4448	6	1	2014	92	3	0.000
Hilton Garden Inn	-79.9594	40.4396	6	1	2015	153	2	0.000
Coat Factory	-79.9975	40.4413	6	3	2014	96	0	0.000
Shops at Station Square	-80.0044	40.4331	6	5	2014	31	5	0.000
PPG Place Plaza and Water Feature	-80.0032	40.4398	6	2	2014	101	1	0.000
Pittsburgh Marriott City Center	-79.9913	40.4398	6	3	2015	196	3	0.000
The Bank of New York Mellon	-79.9975	40.4403	6	1	2014	51	4	0.000
Liberty Avenue Musicians	-79.9965	40.4439	6	1	2014	59	2	0.362
Polish Hill_1	-79.9647	40.4572	6	2	2014	88	4	0.000
Fox Chapel Yacht Club	-79.8731	40.4856	6	1	2014	180	0	0.000
Rex Theater	-79.9824	40.4288	6	2	2014	70	0	0.000
Andrew Carnegie Free Library & Music Hall	-80.0857	40.4068	6	2	2014	25	6	0.258
Jimmy And Nino's Sunseri	-79.9845	40.4508	6	2	2014	106	3	0.000
Shadyside Smiles	-79.9348	40.4512	6	1	2015	191	5	0.348
Highland Park_3	-79.9137	40.4721	6	1	2014	123	4	0.000
Scarehouse	-79.9447	40.4992	6	4	2014	297	6	0.000
Wean 7500	-79.9459	40.4425	6	1	2014	58	2	0.000
Ghostwood Estate	-79.8645	40.3885	5	3	2014	27	6	0.000
The HELL on Earth called PA Route 28	-79.9855	40.4646	5	1	2014	63	2	-0.327
Schorin Co. Inc	-79.9848	40.4505	5	1	2014	175	2	0.000
Holiday Inn Express and Suites	-79.9889	40.4300	5	5	2014	33	0	0.239
Alihan's Mediterranean Cuisine	-80.0024	40.4431	5	4	2014	2	2	0.000
Silky's Pub	-79.9422	40.4582	5	1	2015	188	2	0.000
Yolanda's Hair Design	-79.9509	40.4627	5	1	2014	43	3	0.000
The Bridge	-79.9058	40.4950	5	1	2015	276	6	0.000
Cafe at the Frick	-79.9017	40.4477	5	3	2014	41	1	0.000
Penzeys Spices	-79.9852	40.4503	5	2	2014	132	1	0.000
Yinzers	-79.9825	40.4522	5	4	2014	333	6	0.000
Eastern Area Wilkinsburg Station	-79.8734	40.4446	5	2	2014	39	6	0.000
Pitaland	-80.0219	40.3949	5	4	2014	209	1	0.000
Stumpfs	-79.8875	40.3950	5	2	2014	130	1	0.000
Francesca's Collections	-79.9346	40.4510	5	2	2014	75	0	0.000
Bakery Beach_2	-79.9159	40.4569	5	1	2014	120	3	0.000
Jekyl & Hyde	-79.9807	40.4266	5	5	2014	64	0	0.000
The Black Archive	-80.0630	40.5007	5	1	2015	187	1	0.000
Port Authority Gateway Station	-80.0044	40.4415	5	2	2014	165	6	0.157
Lindos	-80.0184	40.4515	5	1	2015	188	2	0.000
Paul's automotive	-79.9988	40.4566	5	1	2014	113	3	0.000
Crystal Restaurant	-79.9920	40.4460	5	1	2015	274	4	0.000
On The Hurlboat	-80.0314	40.4508	5	1	2015	188	2	0.000
CVS Pharmacy_3	-79.9028	40.4440	5	3	2014	43	2	0.000
Elks Lodge	-80.0008	40.4517	5	3	2014	114	4	0.000
Silvioni's Restaurant	-79.9915	40.5094	5	4	2014	173	0	0.000
Golden Palace Buffet_2	-79.9970	40.4427	5	2	2015	193	0	0.000
WPS	-79.9780	40.4582	5	1	2015	13	2	0.000
Golden Palace Buffet_1	-79.9582	40.4408	5	1	2015	189	3	0.000
Homeless Party	-80.0006	40.4513	5	1	2014	148	3	0.351
Thai Cuisine	-79.9499	40.4622	5	2	2015	277	0	0.000
Cafe On The Strip	-79.9846	40.4507	5	1	2015	17	6	0.000
AT&T_1	-79.9125	40.4111	5	1	2015	278	1	0.000
Cafe DoubleTree	-80.0594	40.4187	5	1	2014	134	3	0.000
South Aiken Bar and Grill	-79.9354	40.4506	5	3	2015	9	0	0.000
Qdoba Mexican Grill_4	-79.9990	40.4426	5	2	2015	190	4	0.000
Hunt Library	-79.9438	40.4411	5	2	2015	281	4	0.000
Alpine Bar	-80.0247	40.4110	5	1	2015	276	6	0.000
Duquesne Scenic Overlook	-80.0190	40.4384	5	3	2015	193	0	0.000
Take A Break	-79.9607	40.4647	5	3	2015	67	0	0.000
Godfrey Steel Mill_1	-79.9077	40.4117	5	1	2014	74	6	0.000
S-10	-79.9994	40.4656	5	1	2014	116	6	0.000
Family Division	-79.9954	40.4385	5	2	2014	135	4	0.000
Stowe	-80.0710	40.4762	5	1	2015	204	4	0.000
Rita's Italian Ice_1	-80.0015	40.4534	5	3	2014	156	4	0.000
Day Spa	-80.0444	40.3816	5	1	2014	225	2	0.000
Iron City Bikes	-79.9639	40.4671	5	1	2014	68	0	0.000
Market Central	-79.9565	40.4426	5	2	2015	278	1	0.000
Frank And Shirley's	-79.9967	40.3886	5	3	2014	39	6	0.000
Residence Inn Pittsburgh University/Medical Center	-79.9547	40.4541	5	4	2014	101	5	0.000
Liangs Hunan Chinese Restaurant	-79.9960	40.4430	5	2	2014	137	6	0.000
Moe's Southwest Grill_1	-80.0022	40.4405	5	1	2014	153	1	0.000
Sharp Edge Creekhouse	-80.0809	40.4403	5	2	2015	80	6	0.000
Starbucks_21	-80.0957	40.3815	5	5	2015	37	5	0.000
The Beer Garden	-79.9964	40.4444	5	1	2015	274	4	0.000
Newell Simon Hall 3002	-79.9457	40.4436	5	1	2014	51	4	0.000
PLS Logistics Services, Southside Branch	-79.9753	40.4307	5	1	2014	157	2	0.203
Don Campiti's Pizzeria	-80.0356	40.3967	5	3	2014	121	4	0.000
10th Street Bridge	-79.9892	40.4326	5	3	2014	185	6	0.000
St Stanislaus Kosta Catholic Church	-79.9836	40.4523	5	2	2014	131	0	0.000
1 PNC Plaza	-80.0000	40.4411	5	2	2014	92	3	0.000
Kennedy Township	-80.0971	40.4743	5	1	2015	204	4	0.000
Central Blood Bank	-80.0398	40.4273	5	2	2014	56	2	0.000
Kate's Moving Castle	-79.9473	40.4548	5	1	2014	81	6	0.000
Bus Stop Penn & Highland	-79.9248	40.4614	5	1	2014	120	3	-0.216
Razzy Fresh_2	-79.9489	40.4458	5	5	2014	18	0	0.310
The Shop	-79.9534	40.4641	5	2	2015	88	0	0.000
Steel City Road Runners Club	-79.9951	40.4509	5	1	2014	74	6	0.000
Rocco's Tavern	-79.8975	40.4220	5	2	2014	33	0	0.000
Jacqueline's Salon	-79.9972	40.4383	5	1	2015	276	6	0.000
Kazanda's Cafe	-79.9250	40.4615	5	1	2014	120	3	0.000
Brighton Heights	-80.0361	40.4775	5	3	2015	30	5	0.000
Panther Hollow Trail	-79.9459	40.4335	5	1	2014	70	1	0.000
Brewski's	-79.9909	40.4288	5	3	2014	87	5	0.000
Brown Bag Deli	-79.9943	40.4441	5	2	2015	191	5	0.000
Squirrel Hill Cafe	-79.9228	40.4380	5	1	2015	74	0	0.000
Caf Raymond	-79.9829	40.4518	5	1	2014	56	2	0.000
Bruegger's Bagel Bakery_5	-79.9357	40.4507	5	2	2014	46	6	0.000
Pittsburgh Jazzlive Festival	-79.9985	40.4433	5	3	2014	172	6	0.286
Dell's Sundae Grill	-79.8991	40.3957	5	2	2014	117	0	0.000
Highland Park Bridge	-79.9121	40.4890	5	1	2015	276	6	0.000
Station Street Hot Dog Shop	-79.9194	40.4605	5	5	2014	117	6	0.000
Burger And Whiskey Bar	-80.0024	40.4403	5	3	2015	290	5	0.000
Renaissance Family Practice	-79.8731	40.4951	5	1	2014	115	5	0.000
DiBella's Old Fashioned Submarines	-80.0020	40.4406	5	3	2015	57	4	0.000
Forbes Tower	-79.9576	40.4403	5	1	2015	274	4	0.000
Fitzgerald Field House	-79.9643	40.4435	5	3	2014	320	0	0.000
Pittsburgh, PA_3	-79.9969	40.4814	5	1	2014	77	2	0.000
GetGo_5	-79.8895	40.4450	5	3	2014	154	2	0.000
Asiago's Tuscan Italian	-80.0114	40.4459	5	1	2015	274	4	0.000
Starbucks_14	-79.9232	40.4306	5	4	2014	35	6	0.000
The Fence	-79.9435	40.4422	5	2	2014	238	3	0.000
Cheerleaders Gentleman's Club	-79.9707	40.4588	5	1	2015	185	6	0.239
Cocina	-80.0345	40.3691	5	1	2015	181	2	0.000
Mandarin Gourmet	-80.0015	40.4394	5	2	2015	190	4	0.000
Aero Communications inc	-80.0774	40.4111	5	1	2014	159	0	0.000
Kayak Pittsburgh	-80.0039	40.4468	5	3	2014	187	5	0.000
Sincerely Yogurt_1	-79.9174	40.4074	5	2	2015	211	3	0.307
Penn Brewery Beer Garden	-80.0067	40.4412	5	1	2015	274	4	0.000
Painting with a Twist	-80.0371	40.3681	5	2	2015	284	0	0.000
Hotel De Rodente	-79.9808	40.4779	5	1	2014	81	6	0.000
Lesvos Gyro Greek Cuisine	-79.9833	40.4288	5	3	2015	37	0	0.000
Beautiful Sexy Chicas Palace	-79.8617	40.3786	5	1	2014	99	0	0.646
Styles By Cardamone Salon & Day Spa	-79.8935	40.4322	5	1	2015	189	3	0.000
4Moms	-79.9981	40.4449	5	1	2015	276	6	0.000
Anthropologie	-79.9155	40.4569	5	3	2014	332	5	0.000
Franktuary_1	-79.9990	40.4411	5	2	2014	23	1	0.000
Cup Ka Joe	-79.9675	40.4260	5	2	2014	137	6	0.000
Mt Washington Observation Deck	-80.0074	40.4321	5	3	2015	145	6	0.000
Many More Asian Market	-79.9728	40.4600	5	1	2014	62	1	0.000
Mister Grooming & Goods	-79.9591	40.4723	5	1	2015	181	2	0.000
Costco Gas	-79.9211	40.4044	5	2	2015	154	3	0.000
Allegheny County Courthouse	-79.9967	40.4387	5	4	2014	73	6	0.000
Franktuary_2	-79.9641	40.4670	5	2	2014	102	6	0.000
St. Nicholas Greek Orthodox Cathedral	-79.9500	40.4447	5	2	2015	192	6	0.000
Lexus Club_1	-80.0068	40.4478	5	1	2015	189	3	0.000
Riverwalk	-80.0106	40.4455	5	2	2015	193	0	0.000
Duquesne Villiage Shopping Center	-79.8719	40.3654	5	1	2014	98	2	0.000
Three Rivers Arts Festival: Second Stage at Gateway Center	-80.0045	40.4423	5	4	2014	158	6	0.194
NORTHSIDE	-80.0057	40.4673	5	1	2014	217	2	0.000
Tammys Place	-79.9862	40.4595	5	1	2014	67	6	0.000
T&A's Haus of Guilty Pleasures	-80.0369	40.3939	5	1	2015	6	2	0.008
Gesling Stadium	-79.9403	40.4432	4	1	2014	33	0	0.000
Orthopedic & Sports Physical Therapy	-80.0701	40.3748	4	1	2015	195	2	0.000
The Dirty O	-79.9121	40.4062	4	1	2014	25	1	-0.367
The Yard_1	-79.9341	40.4515	4	3	2014	198	4	0.000
The Meadery	-79.9092	40.4531	4	1	2014	41	0	0.000
Salud Cuban-American Restaurant and Lounge	-79.9591	40.4726	4	2	2015	31	3	0.000
Gino Brothers Pizzeria	-79.9224	40.4947	4	1	2014	196	2	0.000
Westwood Golf Club	-79.8834	40.3767	4	2	2014	74	3	0.000
AutoZone_2	-79.8918	40.4458	4	2	2014	54	0	0.000
Courtyard by Marriott Pittsburgh West Homestead/Waterfront	-79.9206	40.4058	4	2	2014	71	3	0.000
AGH	-80.0042	40.4569	4	1	2014	88	0	0.000
Penn & 28th	-79.9753	40.4569	4	2	2014	92	2	0.000
Remedy Restaurant and Lounge	-79.9554	40.4790	4	4	2014	1	6	0.000
Pat Catan's	-80.0737	40.4653	4	1	2014	338	4	0.000
Seor Frogs	-80.0255	40.3990	4	2	2014	158	0	0.000
Brentwood Towncenter	-79.9828	40.3665	4	3	2014	106	3	0.000
The Kingsley Association	-79.9156	40.4611	4	2	2014	37	3	0.000
Kennywood Mall	-79.8686	40.3833	4	1	2014	99	3	0.000
Honus Wagner Stadium	-80.0821	40.4008	4	1	2014	297	5	0.000
Uhaul	-79.9718	40.4582	4	1	2014	199	5	0.000
Duke's Rib & Steakhouse	-80.0634	40.3938	4	4	2014	117	0	0.000
Massage Envy Spa	-79.9214	40.4378	4	1	2015	280	3	-0.189
Penn Garrison	-79.9975	40.4443	4	1	2014	37	4	0.000
Covalent Video Production	-79.9244	40.4612	4	1	2014	43	3	0.000
Remember When Ice Cream	-80.0771	40.4590	4	1	2014	159	1	0.000
St Andrew's Episcopal Church	-79.9214	40.4747	4	2	2014	116	0	0.000
Games N' At	-79.9778	40.4249	4	4	2014	31	5	0.000
Henry's House	-79.9249	40.4529	4	1	2014	54	0	0.000
Schenley Park: Bartlett/Beacon Field	-79.9342	40.4331	4	1	2014	70	1	0.000
Jitters	-79.9872	40.4491	4	1	2015	193	0	0.000
The Weasley Burrow	-79.9584	40.4457	4	1	2015	82	1	0.000
Pennsylvania Macaroni Co	-80.0592	40.4182	4	1	2014	147	2	0.000
District Court 05-2-14	-79.8709	40.3653	4	1	2014	27	1	0.000
Hunan Wok_1	-79.8720	40.3653	4	1	2014	32	6	0.000
Wiener World	-79.9972	40.4420	4	2	2014	31	5	0.000
Shale's Cafe	-79.9884	40.4385	4	1	2015	197	4	0.000
Trundle Manor	-79.8806	40.4228	4	2	2014	141	3	0.000
R-Bar	-80.0339	40.3952	4	2	2014	31	2	0.000
Hambone's	-79.9605	40.4705	4	1	2015	74	0	0.000
SEI	-79.9970	40.4399	4	1	2014	51	4	0.000
Pierogies Plus	-80.0601	40.4688	4	2	2014	30	2	0.000
McCormick & Schmick's_2	-79.9668	40.4280	4	4	2014	79	6	0.000
Sciulli's Bar $ Grille	-80.0792	40.4890	4	2	2014	3	2	0.000
Edgewood Towne Center	-79.8876	40.4266	4	1	2014	59	5	0.000
Vent spot	-79.8715	40.3655	4	1	2014	32	1	0.000
Shadyside Market	-79.9348	40.4509	4	1	2014	84	2	0.000
Gameroom Lounge	-79.9032	40.3858	4	2	2014	103	0	0.000
Millvale Riverfront Park_1	-79.9721	40.4721	4	2	2014	172	6	0.000
Dent-Al Smiles	-79.9255	40.4578	4	1	2014	28	2	0.383
Tepper School of Business	-79.9424	40.4409	4	3	2014	133	2	0.000
Saint Mary of Mercy Church	-80.0046	40.4398	4	2	2014	110	0	0.252
The Potato Patch	-79.8652	40.3884	4	1	2014	27	0	0.000
BAJ Tobacco Outlet	-79.9728	40.4853	4	1	2014	126	2	0.000
Pittsburgh City Limit	-79.8937	40.4260	4	2	2014	59	5	0.000
Rite Aid_2	-79.9231	40.4379	4	4	2014	3	6	0.000
Whitaker Point Park	-79.8871	40.3992	4	1	2014	27	1	0.000
Kwik-E-Mart	-79.9955	40.4440	4	2	2014	188	1	0.000
Zarra's	-79.9539	40.4547	4	3	2014	103	0	0.000
Veterans Bridge	-79.9935	40.4498	4	1	2014	93	4	0.000
Pho Van	-79.9826	40.4520	4	3	2014	93	1	0.000
Mario Lemieux Statue  Le Magnifique	-79.9903	40.4403	4	2	2014	167	1	0.000
Parma Sausage	-79.9853	40.4502	4	1	2014	175	2	0.000
Mt Lebanon Ice Center	-80.0549	40.3744	4	2	2014	81	0	0.000
Phantom of the Attic : Games	-79.9488	40.4450	4	2	2014	181	1	0.000
CLO Cabaret	-80.0004	40.4433	4	2	2014	10	0	0.000
Tax Service	-79.9986	40.4540	4	1	2014	51	4	0.000
Soup Nancy's	-79.9876	40.4501	4	1	2014	242	6	0.000
plcb warehouse	-79.8712	40.4874	4	1	2014	127	3	0.000
Wicked Fox Bar and Grill	-79.8737	40.4897	4	1	2015	180	1	-0.254
Popeyes Louisiana Kitchen_2	-79.9772	40.4302	4	2	2014	138	0	0.000
Popeyes Louisiana Kitchen_1	-79.9583	40.4418	4	3	2014	138	0	0.000
just harvest	-79.9969	40.4299	4	1	2014	25	6	0.000
Munhall Veterinary Hospital	-79.9031	40.3972	4	1	2014	177	4	0.000
western pennitentiary	-79.9272	40.4754	4	1	2014	316	3	0.000
Atria's Restaurant & Tavern_1	-80.0467	40.3936	4	4	2014	38	5	0.000
Chateau Caf & Cakery	-80.0322	40.4547	4	2	2014	65	4	0.000
8th & West Bus Stop	-79.9119	40.4062	4	1	2014	25	0	-0.145
Old Navy_2	-79.8913	40.4887	4	1	2014	107	4	0.000
6022 Broad Street	-79.9236	40.4627	4	1	2014	122	5	0.000
Hillel Academy of Pittsburgh	-79.9250	40.4347	4	2	2014	134	1	0.000
Mancini's Bakery_1	-79.9856	40.4501	4	1	2014	277	6	0.000
Fox's Pizza_2	-79.8716	40.3664	4	1	2014	27	1	0.000
Il Pizzaiolo_1	-80.0445	40.3802	4	3	2015	235	0	0.000
Henne Jewelers	-79.9337	40.4513	4	2	2014	190	2	0.000
West Park Dog Park	-80.0106	40.4535	4	2	2015	193	0	0.000
Forbes and Murray Bus Stop	-79.9233	40.4381	4	1	2014	28	2	-0.216
Posvar Hall	-79.9549	40.4417	4	2	2014	29	1	0.000
US Post Office_4	-79.9813	40.4286	4	1	2014	125	1	0.000
The Enrico Biscotti Co	-79.9833	40.4515	4	3	2014	341	0	0.000
Alexander's Italian Bistro	-79.9436	40.4586	4	2	2014	109	6	0.000
St. Thrse of Lisieux Parish	-79.9016	40.3874	4	2	2014	175	2	0.000
Frick Park Blue Slide Playground	-79.9152	40.4304	4	4	2014	108	0	0.000
Environment and Energy Community Outreach Center	-79.9170	40.4635	4	1	2014	42	2	0.412
New City Church	-79.9999	40.4397	4	1	2015	53	0	0.000
Sichuan Gourmet	-79.9242	40.4356	4	3	2014	137	6	0.000
PNC Mortgage_1	-79.9089	40.4114	4	1	2014	86	3	0.000
tk	-80.0019	40.4424	4	3	2015	183	4	0.000
Godfrey Steel Mill_2	-79.8919	40.4097	4	1	2014	159	0	0.000
The Grand Duchy Of Joesutania	-80.0703	40.4252	4	1	2014	40	4	0.273
Dr. Hurley's Office	-79.9876	40.3775	4	1	2014	332	1	0.000
Logan's Pub	-79.9536	40.4544	4	1	2014	66	4	0.000
Venture Street Exit_2	-80.0089	40.4852	4	1	2014	126	2	0.000
All India	-79.9523	40.4522	4	3	2014	82	0	0.000
61c Cafe	-79.9228	40.4361	4	4	2014	43	1	0.000
Grandview Park	-79.9971	40.4262	4	1	2015	186	0	0.000
Taco Bell_2	-79.8887	40.4266	4	2	2014	197	3	0.000
Rangos Omnimax Theater	-80.0181	40.4457	4	2	2014	155	3	0.000
Comfort Inn	-80.0089	40.5054	4	2	2014	1	6	0.304
Laurie's Hallmark	-80.0031	40.4417	4	2	2014	77	2	0.000
Homewood Carnegie Library	-79.8993	40.4551	4	1	2014	41	0	0.000
Posh Nail Boutique	-79.9118	40.4079	4	1	2014	40	0	0.000
Beer Nutz Bottle Shoppe & Grille	-79.8739	40.4897	4	1	2014	36	3	0.000
Walnut Grill_2	-80.0446	40.3809	4	4	2014	66	0	0.000
Oh Yeah! Ice Cream & Coffee Co	-79.9254	40.4579	4	1	2015	194	1	0.189
Salem Halal Market	-79.9736	40.4583	4	1	2015	186	0	0.000
Grandpa Joe's Candy Shop	-79.9824	40.4521	4	4	2014	69	6	0.000
Baker Hall	-79.9447	40.4414	4	4	2014	24	2	0.000
Fairmont Pittsburgh Hotel	-80.0020	40.4414	4	2	2015	10	6	0.000
American Thrift Center	-79.8716	40.3653	4	1	2014	27	1	0.000
Ninth And Penn Garage	-79.9986	40.4440	4	2	2014	45	5	0.000
Coriander Indian Grill	-79.9231	40.4328	4	4	2014	23	0	0.000
Frick Park Market	-79.9053	40.4471	4	2	2014	31	5	0.000
Starbucks_20	-79.9394	40.4558	4	3	2014	185	4	0.000
PAT Inbound Bus Stop	-79.9731	40.4839	4	1	2014	125	2	-0.239
Special Food Store	-79.9822	40.3698	4	2	2014	103	0	0.310
The Lounge on Verona	-79.8619	40.4678	4	1	2014	320	0	0.000
Passive Park	-79.9982	40.4363	4	2	2014	32	0	0.265
Sally Beauty Supply	-79.9997	40.4420	4	1	2014	88	1	0.388
The Yard_2	-80.0027	40.4413	4	3	2015	268	5	0.000
Gourmet Sandwiches	-80.0034	40.4415	4	1	2014	150	5	0.000
Jade Grille	-80.0448	40.3806	4	3	2015	30	0	0.000
South Side Tan	-79.9763	40.4294	4	1	2014	101	1	0.000
Carmine's Barber Shop	-79.9028	40.3861	4	1	2014	148	3	0.000
Muscle Maker Grill	-79.9660	40.4265	4	4	2014	33	4	0.000
Angkor Cambodian & Thai Cuisine	-80.0560	40.4267	4	3	2014	147	2	0.000
Dj's Butcher Block	-79.9501	40.4622	4	2	2014	67	6	-0.326
Steel Valley Beer	-79.9020	40.3979	4	1	2014	104	1	0.000
Mexican War Streets	-80.0082	40.4560	4	2	2014	88	6	-0.438
Pale Horse Tattoo	-79.9875	40.4287	4	2	2014	153	1	0.000
St Andrew Lutheran church	-80.0752	40.4150	4	1	2014	134	3	0.000
Micro Diner	-80.0074	40.4300	4	3	2014	61	0	0.000
Birmingham Bridge Tavern	-79.9646	40.4245	4	3	2015	6	2	0.000
Doherty Hall	-79.9440	40.4423	4	3	2014	31	5	0.000
Aldi_1	-80.0557	40.4651	4	2	2014	147	2	0.000
Wingharts Burger & Whiskey Bar	-79.9831	40.4289	4	2	2015	157	6	0.000
Hunan Bar	-79.9564	40.4403	4	2	2014	95	6	0.000
Exxon_2	-79.8712	40.3662	4	1	2014	98	2	0.000
Ice Castle	-80.0271	40.3666	4	1	2014	81	6	0.000
CMU Heinz College	-79.9456	40.4444	4	2	2014	205	4	0.000
Little Tokyo Bistro	-79.9753	40.4283	4	3	2014	101	5	0.000
City Of Dreams	-79.9274	40.4199	4	1	2014	25	1	0.310
Rodef Shalom	-79.9433	40.4482	4	2	2014	170	4	0.000
Tn Lc Vin	-79.9230	40.4331	4	3	2014	269	6	0.000
Martin Luther King Jr. Pre K-8	-80.0050	40.4549	4	1	2014	153	1	0.000
Millvale Corner Store	-79.9739	40.4842	4	1	2014	126	2	0.000
Stagioni	-79.9759	40.4285	4	2	2015	184	5	0.000
Sushi Fuku	-79.9484	40.4446	4	1	2015	186	0	0.000
CCAC Foerster Student Services Center	-80.0148	40.4500	4	1	2014	121	4	0.000
Nico's Recovery Room	-79.9491	40.4636	4	3	2014	102	6	0.000
C-leveled And Other Companies	-79.9535	40.4633	4	2	2014	86	4	0.000
Greentree Hill	-80.0528	40.4191	4	1	2014	144	6	0.000
Little E's	-79.9962	40.4432	4	2	2014	72	4	0.000
Liberty Tunnel_1	-79.9993	40.4290	4	2	2014	71	3	0.405
Wilkinsburg Busway Stop B	-79.8871	40.4468	4	1	2014	63	2	-0.355
Hookah Bookah	-79.9695	40.4276	4	3	2014	30	1	0.000
Burgatory_3	-80.0110	40.4462	4	2	2015	282	5	0.000
CarSala's Bar and Grille	-79.8716	40.3680	4	2	2014	27	1	0.000
Salon del Reino de los Testigos de Jehov	-79.8702	40.4661	4	1	2014	67	6	0.000
Banksville Plaza	-80.0441	40.3995	4	3	2014	25	6	0.000
Pizza Bellino	-79.9215	40.4381	4	2	2014	156	0	0.000
The Pay Window Of Doom	-79.9832	40.3676	4	1	2014	46	6	-0.369
Tong's Cuisine	-79.9581	40.4395	4	1	2014	49	2	0.000
Mario Lemieux 6.6k starting line	-79.9868	40.4400	4	1	2015	277	0	0.000
Mario's Southside Saloon	-79.9828	40.4288	4	3	2014	32	6	0.000
Antney's Ice Cream	-80.0526	40.4275	4	1	2014	147	2	0.000
Bottom Dollar_2	-79.9398	40.4642	4	2	2014	165	4	0.000
Tipsy Cow	-79.9314	40.4557	4	3	2015	145	1	0.000
Moonstones	-80.0344	40.3952	4	2	2014	32	3	0.000
Dr Eisenberg	-79.9981	40.4398	4	1	2014	51	4	0.000
Gold Lot 1	-80.0121	40.4472	4	1	2015	205	5	0.000
West Park	-80.0129	40.4530	4	2	2015	193	0	0.000
61B Cafe	-79.8938	40.4325	4	3	2015	239	4	0.000
The Monkey Cage	-79.9322	40.4565	4	1	2014	89	0	0.000
Quays Crib	-79.8632	40.3796	4	1	2014	123	6	0.000
Purnell Center	-79.9435	40.4435	4	1	2014	42	2	0.000
Three Gateway Center	-80.0053	40.4417	4	1	2014	240	4	0.000
Sun Penang	-79.9219	40.4382	4	2	2015	116	0	0.000
Caff Mona	-79.9544	40.4658	4	2	2014	45	6	0.000
St. Anne Catholic Church	-80.0341	40.3657	4	1	2014	34	1	0.000
Aldi_4	-79.9350	40.4582	4	2	2014	138	0	0.000
Daphne Cafe	-79.9305	40.4565	4	2	2014	248	5	0.000
The Flats	-79.9833	40.4288	4	4	2015	143	6	0.000
The Mintt	-80.0426	40.4012	4	4	2014	82	0	0.000
Pub In The Park	-79.8975	40.4215	4	2	2014	45	5	0.000
R. Market	-79.9253	40.4572	4	1	2014	108	5	0.000
Sakura Teppanyaki & Sushi	-79.9197	40.4380	4	1	2015	85	4	0.000
Immaculate Heart of Mary Church	-79.9680	40.4565	4	1	2014	143	5	0.000
Koenig Field	-79.8885	40.4330	4	2	2015	146	2	0.000
Ardmore Blvd	-79.8618	40.4258	4	1	2014	56	2	0.000
Aldi_3	-79.9675	40.4268	4	2	2015	194	1	0.000
Eddie Merlot's	-80.0043	40.4413	4	2	2015	185	6	0.000
Courtyard By Marriot Valet Parking Lot_2	-79.9956	40.4444	4	1	2014	187	0	0.000
The Frick Art And Historical Center	-79.9018	40.4469	4	2	2014	126	2	0.000
Eliza Furnace Trail	-79.9532	40.4262	4	3	2015	80	6	0.000
Animal Rescue League Shelter & Wildlife Center	-79.9098	40.4574	4	3	2014	42	6	0.248
Mr. Magic Car Wash_3	-80.0323	40.3698	4	3	2014	57	3	0.000
The Beauty Shoppe	-79.9239	40.4611	4	2	2014	27	1	0.388
In The Kitchen	-79.9855	40.4502	4	1	2014	214	6	0.000
Culture Shop	-79.9827	40.4288	4	2	2014	53	0	0.000
Fredo's Deli	-80.0353	40.3962	4	2	2015	25	0	0.000
Bricolage	-79.9965	40.4431	4	2	2014	135	4	0.000
Matteo's	-79.9652	40.4659	4	2	2014	198	4	0.000
arts and styles studio	-79.9452	40.4956	4	1	2014	142	2	0.000
A.J. Palumbo Center	-79.9880	40.4376	4	3	2014	90	1	0.000
Parts_1	-79.9184	40.4023	4	2	2014	158	0	0.000
Raging Rapids	-79.8642	40.3888	4	2	2014	156	3	-0.345
Pamela's P&G Diner_1	-79.9744	40.4816	4	3	2014	75	0	0.000
31st Street Pub	-79.9713	40.4599	4	2	2014	54	0	0.000
Wood Street Bus Stop	-79.9999	40.4417	4	2	2014	52	5	-0.239
Tenpenny	-79.9957	40.4442	4	2	2014	52	5	0.000
3rd St. Gallery	-80.0904	40.4039	4	1	2015	191	5	0.000
Pittsburg Plunge	-79.8670	40.3889	4	2	2015	205	5	0.000
Potomac Bakery	-80.0346	40.3955	4	2	2014	147	2	0.000
Bus Stop At Stanwix & 4th Ave	-80.0045	40.4403	4	1	2014	287	2	-0.167
32 engine and truck	-79.9986	40.4742	4	1	2014	116	6	0.000
Ritter's Diner	-79.9412	40.4564	4	3	2014	89	0	0.000
Cold Stone Creamery	-79.9230	40.4380	4	3	2014	88	1	0.000
Chartiers Country Club	-80.0934	40.4347	4	1	2014	150	5	0.000
US Post Office_2	-79.9231	40.4367	4	2	2014	97	1	0.000
Space Art Gallery	-79.9984	40.4428	4	2	2014	24	5	0.000
Priory Fine Pastries	-79.9998	40.4538	4	2	2014	78	3	0.231
Bravo Franco Ristorante	-80.0018	40.4428	4	1	2015	185	6	0.000
Heinz Memorial Chapel	-79.9520	40.4452	3	3	2014	109	6	0.000
Clark Bar & Grill	-80.0085	40.4488	3	2	2015	238	3	0.000
Tri Boro FCU	-79.9022	40.4089	3	1	2014	246	3	0.000
Western Pennsylvania Humane Society	-80.0201	40.4509	3	1	2014	240	4	0.000
Allegheny Center Mall	-80.0063	40.4509	3	2	2014	246	3	0.000
Community life	-79.8892	40.4452	3	1	2014	90	1	0.000
LANtek CS	-80.0806	40.4110	3	1	2014	134	3	0.000
Bakery Beach_1	-79.9159	40.4578	3	1	2014	122	5	0.000
Dick's Sporting Goods Pittsburgh Marathon	-80.0021	40.4418	3	3	2014	124	0	0.000
Allegheny Chesapeake Physical Therapy Eastside Office	-79.9309	40.4590	3	1	2014	226	4	0.000
Aetna Training Hell	-80.0816	40.4096	3	1	2014	134	3	-0.434
Allegheny Center Alliance Church	-80.0035	40.4535	3	3	2014	68	0	0.000
The Aquarium	-79.9176	40.4831	3	1	2015	144	0	0.000
Woltz and Wind Ford	-80.0937	40.3858	3	1	2014	43	3	0.000
Summerset at Frick Park	-79.9175	40.4195	3	1	2014	129	5	0.000
Kavsar	-80.0074	40.4288	3	3	2015	79	6	0.000
ACE 2431	-79.9151	40.4109	3	1	2014	80	5	0.000
Pavement	-79.9649	40.4663	3	1	2014	122	5	0.000
YMCA	-80.0091	40.4543	3	1	2015	193	0	0.000
Pittsburgh Steak Company	-79.9781	40.4286	3	3	2014	66	4	0.000
Jack's Diner	-79.9093	40.4078	3	1	2014	101	5	0.000
Bloomfield Estate	-79.9473	40.4649	3	1	2014	142	4	0.000
Duquesne Club	-79.9987	40.4419	3	3	2014	102	1	0.000
Reyna Foods	-79.9834	40.4516	3	2	2014	122	5	0.000
Shop 'n Save_4	-80.0930	40.3876	3	1	2015	49	3	0.314
Forbes Gyro	-79.9570	40.4415	3	1	2015	284	0	0.000
Crazy Mocha_5	-80.0067	40.4557	3	2	2014	200	6	-0.345
Gandy Dancer Saloon	-80.0037	40.4333	3	3	2015	119	3	0.000
Andrews Industrial Controls	-80.0842	40.4164	3	1	2014	134	3	0.000
Kassab's Restaurant	-79.9860	40.4288	3	2	2014	39	6	0.000
Wendy's	-79.9376	40.4570	3	2	2015	49	3	0.000
Three Rivers Rowing Association_1	-79.9758	40.4667	3	1	2014	85	3	0.000
Shop 'n Save_5	-79.8729	40.3656	3	1	2014	27	1	0.314
Core Lab	-79.9930	40.4612	3	1	2014	135	4	0.000
Bangal Kabab House & Restaurant	-79.9552	40.4393	3	2	2015	155	4	0.000
WESA Radio	-79.9867	40.4299	3	1	2015	152	1	0.000
The Hill District	-79.9768	40.4448	3	2	2014	214	6	0.000
Post Office	-79.9439	40.4079	3	1	2014	160	1	0.000
East End Brewing Co	-79.9806	40.4536	3	2	2014	65	4	0.000
The Grant Street Tavern	-79.9979	40.4376	3	1	2015	37	5	0.238
Eat & Park_1	-79.9134	40.4110	3	1	2015	67	0	0.000
Adultmart_2	-80.0082	40.5061	3	2	2014	81	5	0.000
Margaret's Fine Imports	-79.9202	40.4380	3	1	2014	36	3	0.231
Napa Auto Parts	-80.0816	40.4110	3	1	2014	134	3	0.000
J/J Land Company	-79.9327	40.4587	3	1	2014	245	2	0.348
Novak, Berkowitz And Rosenberg	-79.9385	40.4545	3	1	2014	90	1	0.000
Clarion River Organics	-79.9807	40.4535	3	1	2014	242	6	0.000
Mullaney's Harp & Fiddle Irish Pub	-79.9810	40.4533	3	3	2014	73	6	0.000
Nicks Pizza	-80.0348	40.3693	3	1	2015	251	2	0.000
J & J's Family Restaurant & Catering	-80.0072	40.4295	3	2	2014	54	0	0.000
Murray Avenue Kosher	-79.9229	40.4355	3	2	2014	88	1	0.000
19L	-79.9964	40.4394	3	1	2014	51	4	0.000
One on One Personal Training and Fitness	-79.9767	40.4560	3	1	2015	86	5	0.160
PAT East Liberty Garage	-79.9119	40.4575	3	1	2014	41	1	0.327
Sharp Edge Beer Emporium	-79.9307	40.4601	3	2	2014	73	1	0.000
Eden	-79.9347	40.4511	3	2	2014	132	1	0.000
U-Haul	-79.9068	40.4649	3	1	2014	307	1	0.000
Wave Swinger	-79.8669	40.3883	3	2	2014	242	6	0.000
Jackman Inn	-80.0615	40.4955	3	1	2015	278	1	0.000
Hot Franks	-79.9772	40.4560	3	1	2014	34	1	0.000
Redbox_2	-80.0825	40.4101	3	1	2014	134	3	0.000
Gorilla Lawyer	-80.0805	40.4130	3	1	2014	335	1	0.000
Martin Luther King Jr. East Busway	-79.8886	40.4470	3	1	2014	54	0	0.000
UPMC Mercy_1	-79.9853	40.4365	3	1	2015	152	1	0.294
GasAmerica	-79.9274	40.4194	3	1	2014	67	6	0.000
Schenley Park Caf and Visitor Center	-79.9466	40.4384	3	2	2015	145	1	0.000
Engel Home	-79.9920	40.4588	3	1	2014	28	2	0.000
everest ethnic restaurant	-79.9840	40.3678	3	1	2014	126	2	0.000
Red Robin Gourmet Burgers	-79.9168	40.4099	3	2	2015	291	0	0.000
Real McCoy's	-79.9852	40.4288	3	2	2014	87	5	0.000
Sapling Press	-79.9655	40.4647	3	1	2014	197	3	0.000
CBS Radio Pittsburgh	-80.0607	40.4220	3	1	2015	75	1	0.000
Munhall, PA	-79.8999	40.3922	3	2	2014	96	4	0.000
Software Engineering Institute at BkSq	-79.9163	40.4570	3	1	2014	77	2	0.000
Wilkinsburg Station	-79.8884	40.4468	3	2	2014	54	0	0.000
Washington's Landing's Head	-79.9743	40.4699	3	1	2014	197	3	0.000
Bradish Street Pinball Parlor	-79.9871	40.4272	3	2	2014	123	6	0.000
PNC Firstside Center	-79.9976	40.4359	3	2	2014	49	2	0.000
Popeye's	-79.9773	40.4303	3	2	2014	138	0	0.000
Carnival Beverage	-79.8724	40.3682	3	1	2014	48	1	0.000
9th Ward	-79.9551	40.4689	3	1	2014	45	5	0.000
Rte 28 Heinz Building	-79.9898	40.4563	3	1	2014	47	0	0.000
St. Ann Hall	-79.9875	40.4361	3	1	2015	77	3	0.000
Aladdin's Eatery_1	-79.8882	40.4879	3	1	2015	154	3	0.000
Dads Grave	-79.9004	40.3956	3	1	2015	25	0	-0.302
LaundryMat	-79.8711	40.3656	3	1	2014	32	6	0.000
Dubby's Diner	-79.8887	40.4539	3	1	2015	235	0	0.000
Save-Mor Beer & Pop	-79.9254	40.4166	3	3	2014	34	1	0.000
Pittsburgh Grille	-79.9949	40.4417	3	1	2014	200	6	0.000
Grove	-80.0396	40.5011	3	1	2015	193	0	0.000
Strassburger, McKenna, Gutnick, & Gefsky Law	-80.0041	40.4406	3	1	2014	63	2	0.000
Station Square Tunnel	-80.0060	40.4389	3	1	2014	338	4	0.000
Nina And The Pinta	-80.0118	40.4459	3	1	2015	282	5	0.000
Salvatore's Pizza House	-79.8856	40.4438	3	1	2014	54	0	0.000
Allegro Hearth Bakery	-79.9231	40.4337	3	1	2014	97	1	0.000
New Horizons Computer Learning Center of Pittsburgh	-80.0400	40.4272	3	2	2014	97	1	0.000
Legends of the North Shore	-80.0016	40.4565	3	1	2015	52	6	0.000
Archie's	-79.9717	40.4282	3	3	2014	64	0	0.000
Thornburg_1	-80.0823	40.4345	3	1	2014	188	1	0.000
Monview Heights	-79.8826	40.3980	3	2	2014	27	1	0.000
Theater_2	-80.0048	40.4530	3	2	2014	116	6	0.000
Mr. Rogers Memorial	-80.0139	40.4449	3	1	2014	167	1	0.000
Big Lots	-79.9007	40.4098	3	1	2014	179	6	0.000
Residence On Fifth	-79.9470	40.4471	3	2	2014	36	3	0.000
Maximum Flavor Pizza Shop	-79.9487	40.4446	3	1	2015	13	2	0.000
El Toro Loco	-79.9693	40.4277	3	3	2014	89	0	0.000
Yetter's Candies	-79.9739	40.4805	3	1	2014	199	5	0.000
Pop-Up	-79.9966	40.4417	3	1	2014	98	2	0.000
Residences at Piatt place	-79.9994	40.4409	3	1	2015	74	0	0.000
Aldi_2	-80.0150	40.3838	3	1	2014	134	3	0.000
Wilkinsburg Public Library	-79.8857	40.4428	3	1	2014	142	4	0.000
Kiku	-80.0059	40.4338	3	2	2014	149	4	0.000
Bell Avenue Station	-80.0828	40.4155	3	1	2014	134	3	0.000
Kabob-G Grill	-80.0257	40.3655	3	2	2014	52	6	0.000
Pittsburgh Mcknight Road	-80.0102	40.5044	3	1	2014	335	1	0.000
Smithfield Street Bridge	-80.0021	40.4349	3	2	2014	28	2	0.000
Somewhere	-79.9685	40.4265	3	1	2014	9	2	-0.302
Raya's Pizzeria	-80.0826	40.4104	3	1	2014	134	3	0.000
iSchool Collaboration Space	-79.9527	40.4474	3	1	2015	100	5	0.000
New Dumpling House	-79.9231	40.4326	3	2	2015	242	0	0.174
City Theatre	-79.9849	40.4294	3	1	2014	24	4	0.000
BP_1	-79.9589	40.4028	3	2	2014	192	5	0.000
Mike and Tony's Gyros	-79.9967	40.4430	3	1	2014	127	3	0.000
BP_3	-80.0829	40.4101	3	1	2014	62	1	0.000
at the ' ONE HOUSE	-79.9097	40.4065	3	1	2014	40	0	0.000
Sushi Kim	-79.9915	40.4463	3	1	2015	191	5	0.000
Mt. Troy Fire Station	-79.9824	40.4743	3	1	2014	88	6	-0.255
Parkway West Greentree Exit	-80.0479	40.4208	3	1	2014	352	4	0.000
Giant Eagle Supermarket_5	-80.0358	40.4230	3	2	2015	292	1	0.000
Noah's Ark	-79.8654	40.3880	3	1	2014	242	6	0.000
Strip District Meats	-79.9828	40.4521	3	2	2015	170	5	0.000
Phantoms Of The Attic	-80.0554	40.4271	3	1	2015	54	1	0.000
Foster Plaza Building 7	-80.0626	40.4214	3	1	2015	155	4	0.000
South Side Riverfront Park	-79.9755	40.4321	3	2	2014	138	0	0.000
Herron Ave Busway Bridge	-79.9665	40.4595	3	1	2014	115	5	0.000
Pittsburgh Toy Lending Library	-79.9375	40.4565	3	1	2014	184	4	0.000
Zano's Pub House	-79.9500	40.4266	3	2	2015	33	1	0.000
Slice on Broadway_2	-80.0865	40.4076	3	1	2014	233	4	0.000
Gaby Et Jules Patisseries et Macarons	-79.9216	40.4381	3	3	2014	171	0	0.000
The Neighborhood Flea	-79.9817	40.4532	3	3	2015	284	0	0.000
Mind Cure Records	-79.9660	40.4575	3	1	2014	243	0	0.000
Extended StayAmerica Pittsburgh-Carnegie	-80.0885	40.4174	3	1	2014	203	2	0.000
Art of Steel	-79.9826	40.4522	3	2	2014	103	0	0.000
Ohio River	-80.0260	40.4486	3	1	2014	124	0	0.000
Retro On 8th	-79.9102	40.4074	3	1	2014	40	0	0.000
Five Guys Burgers And Fries	-80.0030	40.4402	3	1	2014	186	6	0.000
Redbox_4	-79.8703	40.3652	3	1	2014	27	1	0.000
Black Forge Coffee	-79.9921	40.4215	3	1	2015	239	4	0.000
AT&T_2	-79.9963	40.4402	3	1	2014	132	1	0.000
Ephesus Pizza_2	-80.0001	40.4391	3	1	2014	59	5	0.000
Mike's Bar	-79.9440	40.4976	3	1	2015	279	2	0.000
Colangelo's	-79.9830	40.4516	3	2	2014	70	2	0.000
Cock Pit	-79.9596	40.4381	3	1	2014	100	4	-0.348
BarBell	-80.0550	40.3852	3	1	2014	82	0	0.000
GetGo_3	-80.0844	40.3967	3	1	2014	55	1	0.000
The Mall	-79.9450	40.4420	3	1	2014	31	1	0.000
Arby's	-79.9987	40.4427	3	1	2015	192	6	0.000
Anthonys Pizza	-79.9736	40.4803	3	1	2014	97	1	0.000
Nancy Mosser Casting Agency	-79.9656	40.4652	3	1	2014	29	3	0.000
Muffler Masters	-79.9235	40.4947	3	1	2014	107	4	0.000
Donato's	-79.8830	40.4883	3	2	2015	75	1	0.000
Pizza Company	-79.9677	40.3857	3	1	2015	193	0	0.000
Beers of the Burgh Winter Warmet	-79.9660	40.4717	3	1	2014	312	6	0.000
Rivers Club	-79.9993	40.4381	3	1	2014	106	3	0.000
Cefalo's Banquet & Event Center	-80.0840	40.4081	3	1	2014	26	0	0.000
Jean-Marc Chatellier French Bakery	-79.9745	40.4811	3	1	2014	151	6	0.000
Cafe Delhi_1	-80.0812	40.4097	3	1	2014	134	3	0.000
David L. Lawrence Convention Center Water Pathway	-79.9956	40.4444	3	1	2015	193	0	0.000
City Of Pittsburgh Bureau Of Police Zone 5	-79.9084	40.4744	3	1	2014	94	5	0.000
Emil's Lounge	-79.8803	40.4133	3	2	2014	81	6	0.000
Panhandle Trail Sunnyside	-80.0951	40.4025	3	1	2014	102	6	0.000
China Taste Restaurant	-79.9983	40.4541	3	2	2014	81	4	0.000
La Gondola	-80.0023	40.4402	3	1	2015	289	5	0.000
CVS_1	-79.9862	40.4394	3	2	2014	94	5	0.000
Slacker	-79.9845	40.4288	3	2	2014	42	2	0.000
Atlius	-80.0140	40.4384	3	1	2015	34	2	0.000
Root 174	-79.8938	40.4325	3	3	2014	25	6	0.000
Wilkinsburg, PA	-79.8777	40.4413	3	3	2014	38	5	0.000
Covenant Fellowship Reformed Presbyterian	-79.8759	40.4439	3	1	2015	4	0	0.000
Tom's Diner	-80.0352	40.3943	3	1	2015	152	1	0.000
Carmi Family Restaurant	-80.0173	40.4517	3	1	2015	192	6	0.000
NPC Active Wear	-80.0859	40.4078	3	1	2014	349	1	0.278
Frick Park	-79.9060	40.4315	3	3	2015	155	4	0.000
GENCO Marketplace HQ	-79.8684	40.4863	3	1	2014	38	5	0.000
Super Playground	-79.9182	40.4806	3	1	2015	293	2	0.394
Joe P's Pimpin' House	-79.9584	40.4356	3	2	2015	239	4	0.000
Herr's Island	-79.9769	40.4647	3	1	2014	37	4	0.000
Market On Broadway IGA	-80.0248	40.4103	3	1	2015	146	2	0.000
Esther's Hobby Shop	-79.9745	40.4814	3	1	2014	130	6	0.000
Crouse's Beer Distributor	-80.0597	40.3913	3	1	2015	184	5	0.000
Duquesne Bridge	-79.8637	40.3797	3	1	2015	290	6	0.000
The Loft	-79.8935	40.4320	3	2	2015	181	2	0.000
Johnny Rockets	-79.8643	40.3872	3	1	2014	225	3	0.000
Bus Stop at Murray & Phillips	-79.9232	40.4323	3	1	2014	32	1	-0.196
Bellefield Towers	-79.9520	40.4472	3	2	2014	56	1	0.000
Razzy Fresh_1	-79.9583	40.4405	3	2	2015	157	6	0.290
Maroney's Foreign Cars And Parts	-80.0803	40.4103	3	1	2014	134	3	0.000
Friday Rd Park	-79.9689	40.4855	3	1	2014	144	6	0.000
Kids Plus Pediatrics	-79.9382	40.4273	3	1	2014	99	3	0.000
Easy Street	-79.9980	40.4379	3	2	2015	155	4	0.340
The Pump House	-79.8975	40.4131	3	1	2014	141	3	0.000
Waffallonia_2	-79.9229	40.4377	3	1	2015	74	0	0.000
BYS Yoga	-79.9870	40.4287	3	1	2014	354	6	0.000
McNeilly Station	-80.0047	40.3776	3	1	2014	137	6	0.000
Asia Tea House	-79.9529	40.4427	3	3	2014	91	0	0.000
Mahoneys	-79.9962	40.4432	3	1	2015	8	4	0.000
Zzzzzzzzzz's Laying my head down	-79.9025	40.4005	3	1	2015	19	1	0.000
Roberto Clemente Statue	-80.0040	40.4468	3	2	2015	219	5	0.000
Milk Man Brewing	-79.9794	40.4543	3	1	2015	4	0	0.000
Harris Theater	-79.9985	40.4426	3	2	2014	135	4	0.000
Dutchess	-80.0075	40.4371	3	1	2014	90	1	0.000
Mervis Hall	-79.9530	40.4405	3	1	2015	194	1	0.000
Federal North Medical Office Building	-80.0074	40.4568	3	1	2014	48	1	0.000
The Bagel Factory_2	-79.9200	40.4382	3	2	2014	53	6	0.000
Kawaii Gifts	-79.9348	40.4509	3	2	2015	78	4	0.000
Pride_1	-79.9770	40.4548	3	1	2014	166	0	0.211
Cj Chugs	-79.9706	40.3946	3	1	2015	144	0	0.000
Cafe Delhi_2	-80.0873	40.4081	3	1	2014	147	2	0.000
City Of Asylum	-80.0112	40.4571	3	1	2015	282	5	0.000
Cellone's	-80.0789	40.4241	3	1	2015	21	3	0.000
Homewood	-79.8910	40.4546	3	1	2014	293	1	0.000
Salt of the Earth	-79.9315	40.4638	3	2	2015	197	4	0.000
Pipeline Coaster_1	-79.8737	40.3960	3	1	2014	119	2	0.000
Five Points Artisan Bakeshop	-79.9177	40.4443	3	1	2015	38	6	0.000
allegheny ophthalmic and orbital associates	-80.0029	40.4565	3	1	2014	108	5	0.000
Mt. Lebanon Tennis Center	-80.0557	40.3762	3	1	2014	137	6	0.000
Pageboy Salon And Boutique	-79.9651	40.4658	3	1	2014	73	5	0.000
First Avenue Garage	-79.9965	40.4355	3	1	2014	334	0	0.000
Sammys Pizza	-80.0532	40.4301	3	1	2014	147	2	0.000
Spring Hill	-79.9930	40.4614	3	1	2014	248	5	0.000
Corner Cafe	-79.9840	40.4219	3	2	2014	81	6	0.000
A Sweet Boutique	-79.9661	40.4643	3	1	2014	67	6	0.375
St. James Catholic Church	-79.8851	40.4407	3	2	2014	47	0	0.000
Cafe Niko's	-80.0075	40.4304	3	2	2015	183	4	0.000
Willie Stargell Statue	-80.0040	40.4476	3	2	2014	145	0	0.000
Pittsburgh Pride Car Wash	-79.9457	40.4254	3	1	2015	197	4	0.231
Grown & Sexy 2	-79.9791	40.4543	3	1	2014	327	0	0.327
Marcus and Hays Dentist	-79.9398	40.4268	3	1	2015	54	1	0.000
PennDOT Photo & Exam Center	-79.9967	40.4429	3	1	2015	41	2	0.000
Gus & Yiayia's	-80.0119	40.4518	3	3	2014	142	4	0.000
The Bistro	-79.9962	40.4443	3	1	2014	156	4	0.000
Bluebird Kitchen	-80.0018	40.4404	3	1	2014	350	2	0.000
Smallman Street Deli	-79.9752	40.4582	3	1	2015	184	5	0.000
Regent Square_2	-79.8998	40.4278	3	1	2014	89	0	0.000
Pittsburgh Winter Beerfest_2	-79.9970	40.4453	3	1	2014	61	0	0.000
Kenyon Jewelers	-79.8838	40.4434	3	1	2014	54	0	0.000
Sarafinos Pasta and Pizza	-80.0656	40.4357	3	3	2014	123	2	0.000
East Busway Negley Station	-79.9327	40.4566	3	2	2014	88	6	0.000
Homewood Brighton CCAC	-79.8888	40.4470	3	1	2014	54	0	0.000
My Coffee Pot	-79.9920	40.3780	3	1	2014	243	0	0.000
The Chair Of Narcolepsy	-80.0886	40.4172	3	1	2014	134	3	0.000
Braddock/North Braddock Little League Field	-79.8767	40.4096	3	2	2014	205	4	0.000
STD	-80.0482	40.4211	3	1	2014	134	3	0.000
William S. Moorhead Federal Building	-79.9943	40.4436	3	3	2014	121	3	0.000
South Side Fountain	-79.9658	40.4278	3	2	2015	194	1	0.000
tobacco	-79.9742	40.4803	3	1	2014	40	0	0.000
Mattress Factory Annex Building	-80.0134	40.4571	3	1	2015	193	0	0.000
TMHQ_2	-80.0562	40.4220	3	1	2014	66	5	0.000
La Htte Royal	-79.9827	40.4668	3	1	2014	285	0	0.000
Wines and Spirits_1	-80.0565	40.4649	3	1	2014	26	0	0.000
Easy Trip 352	-80.0827	40.4098	3	1	2014	134	3	0.326
I-376 Exit 74	-79.9302	40.4286	3	1	2015	85	4	0.000
Alladin's Eatery	-80.0523	40.3760	3	1	2015	153	2	0.000
Riverview Park	-80.0180	40.4826	3	3	2014	82	0	0.000
Lewis' Hair Salon	-80.0341	40.4765	3	1	2015	191	5	0.000
The Village Idot	-79.8721	40.3652	3	1	2014	32	6	0.000
Modcloth New HQ	-80.0811	40.4447	3	1	2014	69	1	0.000
The Commoner	-79.9965	40.4415	3	2	2015	269	6	0.000
Thai Hana	-79.9589	40.4416	3	1	2014	100	4	0.000
The Olive Tap Pittsburgh Strip District	-79.9801	40.4538	3	1	2014	186	6	0.000
The lioness den	-79.9730	40.4885	3	1	2014	29	3	0.000
Hi-Level Lounge	-79.9096	40.4067	3	1	2014	40	0	0.000
Rise And Shine	-79.8994	40.4043	3	1	2014	312	6	0.000
Dpd Computers	-80.0811	40.4114	3	1	2014	134	3	0.000
The Getaway Cafe	-80.0157	40.3845	3	1	2014	86	4	0.000
Shake & Twist	-80.0723	40.4654	3	1	2014	156	4	-0.175
Shadyside_2	-79.9327	40.4537	3	1	2014	243	0	0.000
Loftus Engineers, LLC	-80.0886	40.4162	3	1	2014	134	3	0.000
Ice House Studios	-79.9637	40.4728	3	1	2014	57	3	0.000
Kennywood Parking Lot	-79.8685	40.3878	3	3	2014	148	3	0.000
Home Sweet Hell	-79.9473	40.4548	3	1	2014	96	0	-0.127
Bauerstown Baseball Complex	-79.9600	40.4925	3	1	2014	140	0	0.000
jay smooths creation kitchen	-80.0903	40.4115	3	1	2014	137	6	0.231
Batting Practice Batting Cages	-79.9074	40.3619	3	2	2015	265	2	0.000
Phong May House	-80.0550	40.4271	3	1	2014	197	3	0.000
3 Rivers Praise & Worship	-79.9503	40.5063	3	1	2014	93	4	0.453
CMU HCII Ubicomp Lab	-79.9459	40.4434	3	1	2014	355	0	0.000
Bottom Dollar Food	-79.9119	40.4073	3	1	2014	40	5	0.000
200 Fleet St	-80.0494	40.4207	3	1	2014	139	1	0.000
Mineo's Pizza	-79.9232	40.4329	3	2	2015	182	3	0.000
Di Salla's Pizza	-79.8957	40.4088	3	1	2014	121	4	0.000
CIC Collaborative Innovation Center	-79.9464	40.4439	3	2	2014	36	3	0.262
NuVision Engineering	-79.9702	40.4297	3	1	2014	70	2	0.000
Joop Offerman, MD	-79.9142	40.4504	3	1	2014	175	2	0.000
The Skin Center Medical Spa	-79.9359	40.4506	3	1	2014	51	4	0.000
Deli On North Avenue	-80.0066	40.4555	3	2	2014	156	4	0.000
Bud Harris Cycling Track	-79.9090	40.4751	3	2	2014	144	6	0.000
Carnegie Lecture Hall	-79.9497	40.4423	3	2	2014	284	6	0.000
Stan Lederman Field	-79.9134	40.4297	3	1	2015	193	0	0.000
Highland Park Tennis Courts	-79.9109	40.4748	3	1	2014	94	5	0.000
Anthrocon Charity Auction	-79.9929	40.4470	3	1	2015	193	0	0.286
Rock Room	-79.9638	40.4580	3	1	2014	145	0	0.000
Meemaw's Cat Haus	-79.9025	40.3803	3	1	2014	56	2	0.000
Giovanni's Pizza & Pasta	-80.0380	40.3922	3	3	2014	80	6	0.000
Braddock's American Brasserie	-80.0027	40.4439	3	3	2014	28	2	0.000
Blinky's Noblestown Grill	-80.0551	40.4275	3	1	2014	156	4	0.000
My Furry Domain	-79.9650	40.3680	3	1	2015	52	6	0.000
Little Tokyo	-80.0444	40.3817	3	3	2014	145	0	0.000
Outer skin	-79.9064	40.4089	3	1	2015	290	6	0.000
Tender Bar + Kitchen	-79.9605	40.4706	3	1	2015	184	5	0.000
City of Pittsburgh_2	-80.0116	40.4375	3	1	2014	242	6	0.000
Artisan	-79.9842	40.4510	3	1	2014	88	6	0.000
sunoco	-79.9738	40.4808	3	1	2014	40	0	0.000
Independent Brewing Co	-79.9194	40.4379	3	3	2015	100	1	0.000
Huntington Bank	-79.9969	40.4427	3	1	2014	189	2	0.000
Hampton Inn Pittsburgh Univercity Center	-79.9631	40.4360	2	2	2015	15	2	0.000
Jester's Court tattoo	-79.9838	40.4288	2	1	2015	109	0	0.000
Jiffy Lube_1	-80.0395	40.4046	2	2	2014	51	4	0.000
Yogurt City	-79.8874	40.4264	2	1	2014	104	1	0.000
Dr Spatz DMD	-79.9228	40.4337	2	1	2014	142	2	0.000
Schenley Park Disc Golf Course_2	-79.9456	40.4313	2	1	2014	362	0	0.000
Pittsburgh Downtown Partnership	-79.9973	40.4430	2	1	2014	41	1	0.000
Rite Aid_6	-79.9976	40.4413	2	1	2014	132	1	0.000
Pittsburgh Seltzer Works	-79.8931	40.4261	2	1	2014	59	5	0.000
O'Reilly Theater	-80.0014	40.4428	2	2	2014	134	0	0.000
Tessitura Office	-79.9985	40.4428	2	1	2015	28	3	0.000
St. Peter & St. Paul Hall	-80.0853	40.4093	2	1	2014	202	1	0.000
Rite Aid_7	-79.9983	40.4538	2	1	2014	40	0	0.000
General Robinson Garage	-80.0097	40.4476	2	1	2014	91	2	0.000
Columbia	-79.9470	40.4616	2	1	2015	8	4	0.000
0	-79.9099	40.4556	2	1	2014	90	1	0.000
Koppers Tower	-79.9953	40.4421	2	2	2014	25	2	0.000
The Cheesecake Factory	-79.9654	40.4282	2	2	2014	3	0	0.000
525 William Penn Place	-79.9985	40.4412	2	1	2014	70	2	0.000
Berry Quool	-80.0581	40.4970	2	2	2014	145	0	0.000
The In-laws	-80.0703	40.3949	2	1	2014	79	0	0.000
Josza Corner Hungarian Restaurant	-79.9449	40.4112	2	1	2014	44	4	0.000
21st Street Coffee and Tea_2	-80.0008	40.4411	2	2	2014	56	2	0.000
Castle Shannon, PA	-80.0223	40.3633	2	1	2014	33	0	0.000
Supercuts	-79.9781	40.4286	2	2	2015	27	1	0.000
Soldiers & Sailors Memorial Hall & Museum	-79.9563	40.4451	2	1	2015	181	2	0.000
Bus Stop Stanwix St. & Penn Ave	-80.0044	40.4415	2	1	2015	201	1	-0.167
Heinz Lofts Reservior Building	-79.9901	40.4542	2	2	2014	43	1	0.000
Imperial Palace	-79.9810	40.3666	2	1	2014	140	2	0.000
Shadyside Hideaway	-79.9256	40.4579	2	1	2014	33	0	0.000
Bob's Diner_2	-80.0138	40.3661	2	2	2015	141	4	0.000
Keystone Cafe	-79.9983	40.4414	2	1	2015	14	3	0.000
Family Links	-79.8653	40.4321	2	1	2015	48	2	0.000
Wines and Spirits_2	-79.9212	40.4591	2	1	2014	41	1	0.327
Parkvale Bank	-79.9796	40.3671	2	1	2014	140	2	0.000
Rosslyn Farms Community Pool	-80.0888	40.4194	2	1	2014	134	3	0.000
U.S. Bankruptcy Court	-79.9952	40.4414	2	1	2015	265	2	0.000
Kopy's Bar	-79.9864	40.4281	2	1	2015	269	6	0.000
Senate Office	-79.9428	40.4442	2	1	2014	42	2	0.000
Living Spirit Ministry	-79.8884	40.4213	2	1	2014	77	2	0.221
Swissvale Senior Center	-79.8911	40.4226	2	1	2014	59	5	0.000
Cuzamil Restaurante Mexicano	-79.9228	40.4335	2	2	2014	61	0	0.000
WORD FM	-80.0406	40.4247	2	2	2014	57	1	0.000
Rohrich Mazda PGH	-80.0300	40.3975	2	1	2014	69	1	0.000
Rite Aid_4	-79.9344	40.4586	2	1	2015	156	5	0.000
tan 360	-79.9356	40.4506	2	1	2015	241	6	0.000
Burger King_1	-80.0662	40.4951	2	2	2015	295	4	0.000
Dough Boy Statue	-79.9670	40.4629	2	1	2015	194	1	0.000
An SAP Company	-79.9998	40.4420	2	1	2014	112	2	0.000
Cibo	-79.8939	40.4328	2	1	2014	36	3	0.000
Turn 9 Westinghouse Fountain	-79.9434	40.4395	2	1	2014	27	1	0.000
Dentist	-79.9256	40.4941	2	1	2014	107	4	0.000
Definitely You	-79.9822	40.3670	2	1	2014	186	6	0.351
The Carlton Restaurant	-79.9959	40.4394	2	1	2015	194	1	0.000
Allegheny River_1	-79.9496	40.4885	2	1	2015	2	5	0.000
Walker's Pub	-79.9767	40.4276	2	2	2014	128	0	0.000
Concord Presbyterian Church	-79.9822	40.3951	2	1	2015	196	3	0.000
Casa Rasta	-79.9252	40.4601	2	1	2015	42	3	0.000
United Steelworkers Building	-80.0047	40.4396	2	1	2014	83	1	0.318
Loft	-79.9872	40.4495	2	1	2015	38	6	0.000
India Garden	-79.9550	40.4390	2	1	2014	117	0	0.000
Turner Cemetery	-79.9273	40.4208	2	1	2014	80	5	0.000
The Turtle	-79.8654	40.3887	2	1	2014	242	6	0.000
Deutschtown Square	-80.0026	40.4555	2	1	2014	125	1	0.000
Life's Work	-79.9880	40.4381	2	1	2014	51	4	0.000
Andys	-80.0019	40.4413	2	2	2014	173	0	0.000
The Neighbors Pool	-79.9791	40.3670	2	1	2014	140	2	0.000
Magee-Women's Hospital Of UPMC	-79.9607	40.4369	2	1	2014	108	5	0.000
Justun and crystals	-79.9473	40.4952	2	1	2014	317	4	0.000
Bicycle Heaven	-80.0327	40.4582	2	1	2015	144	0	0.320
South Lot Parking CEC	-79.9904	40.4411	2	1	2014	124	0	0.000
Home And Garden Show	-79.9970	40.4456	2	1	2015	72	5	0.000
The Exchange_4	-80.0357	40.3937	2	2	2014	122	2	0.000
Wyndham Fitness Center	-80.0063	40.4414	2	1	2015	144	0	0.231
Uptown Bakery and Cafe	-80.0450	40.3795	2	1	2015	250	0	0.000
Perrino's Pizzeria & Market	-80.0233	40.3879	2	2	2014	62	1	0.000
Children's Hospital Pittsburgh Bear Suite	-79.9525	40.4662	2	1	2014	170	4	0.000
Family Dollar_1	-80.0153	40.4570	2	1	2014	70	2	0.000
Albert's	-80.0360	40.3977	2	1	2014	91	2	0.000
Hot Dog Dam	-79.9000	40.4388	2	2	2014	151	6	0.000
Homestead_2	-79.9121	40.4079	2	1	2015	40	1	0.000
A&A Mailing Services	-79.9341	40.4509	2	1	2014	162	3	0.000
1905 Eatery	-80.0746	40.4728	2	1	2014	156	4	0.000
Saint Patrick's Church	-79.9854	40.4495	2	1	2014	180	0	0.000
Satalio's	-80.0044	40.4270	2	1	2014	52	5	0.000
Pittsburgh Eye Associates	-79.9029	40.3860	2	1	2014	202	1	0.000
Pornographic Bathroom_2	-80.0155	40.4580	2	2	2014	108	2	0.000
Wilkinsburg Beverage Company	-79.8856	40.4442	2	1	2014	54	0	0.000
Delanie's Coffee	-79.9807	40.4288	2	1	2014	224	2	0.000
Rita's Italian Ice_2	-79.9764	40.4959	2	2	2014	152	0	0.000
Millvale Riverfront Park_2	-79.9715	40.4727	2	1	2014	102	6	0.000
BP_5	-79.8907	40.4269	2	1	2014	59	5	0.000
Bryant Street Market	-79.9195	40.4757	2	1	2015	25	0	0.000
Braddock Farms	-79.8636	40.3989	2	1	2014	183	3	0.000
Penn Station	-79.9921	40.4440	2	2	2014	113	3	0.000
CVS_2	-80.0820	40.4099	2	1	2015	73	6	0.000
Laurent Chiropractic	-79.9819	40.3657	2	1	2014	140	2	0.000
Aces And Deuces Lounge	-79.9867	40.4385	2	1	2014	100	4	0.000
Super Suds Laundromat	-79.9764	40.4301	2	1	2014	29	3	0.394
Weil School	-79.9754	40.4447	2	1	2014	45	5	0.000
Courthouse Tavern	-80.0004	40.4400	2	2	2014	179	3	0.000
Stone Neapolitan Pizzeria	-80.0061	40.4414	2	2	2015	143	3	0.000
The Ralston-Thye Homestead	-79.8801	40.4288	2	2	2014	130	3	0.000
Fort Pitt Hell	-80.0295	40.4291	2	2	2014	108	0	-0.434
Kresge Theatre	-79.9432	40.4415	2	1	2014	141	3	0.000
Yimmy's	-79.9971	40.4425	2	1	2014	188	1	0.000
Allegheny River_2	-79.9997	40.4470	2	2	2014	141	3	0.000
brewing co	-79.9683	40.4787	2	1	2014	58	4	0.000
The Randy Pausch Memorial Bridge	-79.9441	40.4432	2	1	2014	118	1	0.000
Lane Steel	-80.0529	40.4669	2	1	2014	35	2	0.000
Pizza Bomonti	-80.0690	40.4361	2	1	2015	266	3	0.000
Squirrel Hill Sports Bar	-79.9224	40.4294	2	1	2015	75	1	0.000
Bellefield Hall Auditorium	-79.9514	40.4453	2	1	2014	141	3	0.000
Stretch's	-79.9938	40.4217	2	1	2014	150	5	0.000
The Warhol: Store	-80.0021	40.4486	2	1	2014	132	1	0.000
Integrated Fitness_2	-79.9860	40.4278	2	2	2014	116	4	0.296
Crested Duck Charcuterie	-80.0245	40.4105	2	1	2015	179	0	0.000
Carrick farmers market	-79.9867	40.3920	2	1	2015	161	3	0.000
Sporting Goods_1	-79.8899	40.4072	2	1	2014	90	1	0.000
Fine Foods	-79.9858	40.4501	2	2	2014	92	1	0.265
Sincerely Yogurt_2	-79.9666	40.4268	2	2	2014	144	6	0.383
Giant Eagle Supermarket_7	-79.8699	40.3823	2	1	2015	15	4	0.000
Sporting Goods_2	-79.9111	40.4101	2	1	2015	162	4	0.000
McDonald's_2	-79.9866	40.4492	2	1	2015	194	1	0.000
Gemini Theater	-79.8958	40.4480	2	1	2014	141	3	0.000
Point Breeze_2	-79.9071	40.4508	2	2	2014	41	1	0.000
Modernformations Gallery & Performance Space	-79.9445	40.4653	2	1	2015	191	5	0.000
Christyles Beauty & Barbershop	-79.8838	40.4433	2	1	2014	54	0	0.352
The Spot	-79.8849	40.4027	2	1	2014	27	1	0.000
Community Family Practice	-79.8626	40.4269	2	1	2014	73	5	0.000
Stan's Market	-79.9847	40.4508	2	2	2014	43	0	0.000
Steel City Choppers	-79.8634	40.3882	2	1	2015	158	0	0.000
Station 149 Fish Fry	-79.9485	40.5028	2	2	2014	108	5	0.000
Penguin Gallery	-79.9178	40.4832	2	1	2014	139	1	0.000
Charles Morris Nursing Home and Rehabilitation Center	-79.9203	40.4139	2	1	2014	54	0	0.000
Zombie Research Labs	-79.9275	40.4441	2	1	2015	241	6	0.000
Kommon Cents	-79.8725	40.3654	2	1	2014	98	2	0.000
636 Ray Drive	-80.0919	40.4177	2	1	2014	134	3	0.000
Davey J's Cafe	-80.0405	40.4244	2	1	2014	97	1	0.000
Branding Brand_2	-79.9725	40.4291	2	1	2014	149	4	0.000
Dijlah Resturant	-79.9604	40.4704	2	1	2014	103	0	0.000
Mt. Oliver	-79.9877	40.4166	2	1	2014	25	6	0.000
Bridges	-79.9549	40.4458	2	1	2014	28	2	0.000
Village Park	-80.0021	40.4383	2	1	2014	100	4	0.000
Port Authority St. Anne Trolley Stop	-80.0293	40.3608	2	1	2014	137	6	-0.072
Pittsburgh Lacrosse Store	-80.0271	40.3664	2	1	2014	145	0	0.000
The Zenith	-79.9689	40.4267	2	2	2014	47	0	0.000
Trimont	-80.0197	40.4382	2	1	2014	61	0	0.000
Ruth's Chris Steak House	-80.0035	40.4394	2	2	2014	90	0	0.000
Rizzo's Margaritaville	-79.9746	40.4284	2	2	2014	74	0	0.000
Carnegie Library Of Homestead	-79.8935	40.4074	2	1	2014	177	4	0.000
Colonial Cleaners	-79.9243	40.4290	2	1	2014	25	1	0.000
Curry Away	-79.8841	40.4305	2	2	2014	57	3	0.000
Larry's Bar	-79.9747	40.4380	2	1	2014	100	4	0.000
United states post office	-80.0047	40.4434	2	1	2014	113	3	0.286
Toss't	-80.0018	40.4412	2	1	2014	87	1	0.000
Rivervue workout facility	-80.0055	40.4410	2	1	2014	30	2	0.000
Sammy's	-79.9951	40.4382	2	1	2015	145	1	0.000
Calabria's Restaurant	-80.0065	40.3734	2	1	2014	339	5	0.000
Pittsburgh Theological Seminary	-79.9208	40.4677	2	2	2015	244	1	0.000
Pittsburgh Police Academy	-79.9090	40.4715	2	2	2014	94	4	0.000
Lucca	-79.9486	40.4453	2	1	2014	42	2	0.000
Three Rivers Heritage Trail_2	-80.0427	40.4720	2	2	2014	128	4	0.000
Cuckoo's Nest	-79.9728	40.4284	2	1	2014	179	6	0.000
Trees Hall Fitness Center	-79.9651	40.4439	2	1	2014	52	3	0.220
Shur Save	-79.9524	40.4638	2	1	2015	156	5	0.348
Nana's Hot Dog	-80.0048	40.4553	2	1	2014	286	1	0.000
Towne Pharmacy	-79.9039	40.4900	2	2	2014	40	0	0.000
George L Wilson Co	-80.0012	40.4490	2	1	2014	55	1	0.000
Crystal Bead Bazaar	-79.9588	40.4728	2	1	2014	189	2	0.000
Bruegger's Bagel Bakery_4	-80.0029	40.4411	2	2	2014	26	0	0.000
Polar Bear Tunnel	-79.9182	40.4834	2	1	2014	139	1	0.000
Millvale, PA_1	-79.9734	40.4815	2	1	2014	38	5	0.000
Cestones Pizza	-80.0096	40.4309	2	1	2015	145	1	0.000
I.U.O.E Local 95	-79.9489	40.4268	2	1	2014	244	1	0.000
The Sanctuary	-80.0255	40.4011	2	1	2014	29	3	0.000
Steel Valley Senior High School	-79.9001	40.3894	2	1	2015	25	0	0.000
Killarney T Station	-80.0077	40.3740	2	1	2014	137	6	0.000
Haze Haus	-79.9584	40.4659	2	1	2014	24	5	0.000
Eat & Park_2	-79.9137	40.4119	2	1	2015	23	5	0.000
Brookline Memorial Park_1	-80.0083	40.3912	2	1	2014	156	4	0.000
University of Pittsburgh Department of Chemistry	-79.9574	40.4460	2	1	2015	33	1	0.000
Unicorn Castle	-80.0971	40.3959	2	1	2015	196	3	0.000
Yinzburgh BBQ	-79.9464	40.4547	2	2	2015	22	4	0.000
Homestead, PA_1	-79.9093	40.4049	2	1	2014	219	4	0.000
Whitaker	-79.8895	40.4032	2	1	2014	27	1	0.000
Brookline Memorial Park_2	-80.0078	40.3905	2	1	2014	88	6	0.000
Pearl's Cafe II / Hob Nob	-79.8939	40.3838	2	1	2014	132	0	0.000
Barre Code	-79.9345	40.4515	2	1	2014	275	4	0.000
Mr. Roboto Project	-79.9425	40.4648	2	1	2015	239	4	0.000
The Pittsburgh Foundation	-80.0034	40.4394	2	1	2015	239	4	0.000
Pittsburgh CAPA High School	-79.9985	40.4446	2	1	2014	114	4	0.000
pittsburgh crank shaft	-79.9131	40.4586	2	1	2014	90	1	0.000
The Castle	-79.9334	40.4598	2	1	2015	29	4	0.000
GHC 4102	-79.9448	40.4435	2	1	2014	42	2	0.000
NovaCare Rehabilitation_2	-79.9140	40.4053	2	1	2014	316	1	0.000
East Liberty Station	-79.9231	40.4593	2	1	2014	27	2	0.345
Paris 66	-79.9242	40.4599	2	1	2014	95	6	0.000
Redbox_5	-80.0525	40.4312	2	1	2014	141	3	0.000
Fox Way Commons	-79.9809	40.4305	2	1	2014	68	0	0.000
Highmark Sportsworks at Carnegie Science Center	-80.0184	40.4464	2	1	2015	76	2	0.000
Word of God Parish	-79.8893	40.4231	2	1	2014	200	6	0.259
Citiparks Pool_2	-79.9535	40.4620	2	1	2014	183	3	0.000
Food Truck Friday	-79.9817	40.4525	2	1	2014	75	0	0.000
Pittsburgh Heritage Trail	-80.0157	40.4467	2	1	2014	104	1	0.000
Shadyside Luna Parking Garage	-79.9448	40.4566	2	1	2015	75	1	0.000
Smoke BBQ Tacos	-79.9607	40.4698	2	1	2015	59	6	0.000
DiSilvos Pizza	-79.9757	40.3740	2	1	2015	179	0	0.000
Commonwealth Press Warehouse	-79.9726	40.4302	2	1	2014	123	6	0.000
Port Authority South Hills Junction	-80.0075	40.4207	2	1	2015	241	6	0.126
Aero 360	-79.8626	40.3879	2	1	2014	99	3	0.000
Dave and Andy's Ice Cream	-79.9574	40.4409	2	2	2015	80	4	0.000
Todds Cafe	-79.9757	40.4453	2	1	2014	45	5	0.000
Murray Avenue Bridge	-79.9278	40.4282	2	2	2014	25	5	0.000
One Gateway Center	-80.0052	40.4416	2	2	2014	30	4	0.000
Speedway	-80.0929	40.4402	2	2	2014	48	1	0.000
Hyatt House Pittsburgh Bloomfield / Shadyside	-79.9389	40.4573	2	1	2015	194	1	0.000
Roberto Clemente Museum	-79.9676	40.4624	2	1	2014	200	6	0.000
Persad Center	-79.9410	40.4646	2	2	2014	45	4	0.000
Mon Aimee Chocolat	-79.9832	40.4518	2	2	2014	53	6	0.000
Senti Restaurant and Wine Bar	-79.9668	40.4634	2	2	2015	97	2	0.000
Forbes-Craig Apartments	-79.9492	40.4445	2	1	2014	42	2	0.000
Dr. Mecs Dentist	-80.0354	40.3965	2	1	2014	164	5	0.000
Villa	-80.0003	40.4402	2	1	2014	158	6	0.000
Monterey Pub	-80.0131	40.4557	2	2	2014	201	0	0.000
Mellon Square Parking Garage	-79.9963	40.4420	2	1	2015	80	0	0.000
Rollier's Hardware_2	-80.0443	40.3830	2	2	2014	58	3	0.000
Caitlyns Bus Stop	-79.9510	40.5039	2	1	2014	136	5	-0.268
Wilkinsburg Borough Police/Fire	-79.8860	40.4434	2	1	2014	43	3	0.000
First National Bank	-79.9816	40.3666	2	1	2014	140	2	0.000
Wine Bar	-79.9736	40.4281	2	2	2015	26	1	0.000
Children's Community Pediatrics	-79.8717	40.4949	2	1	2014	52	3	0.000
Pittsburgh Winter Beerfest_1	-79.9968	40.4458	2	1	2015	53	0	0.000
Heinz 57 Center	-79.9984	40.4416	2	1	2014	90	1	0.000
AAA Motor Vehicles East Liberty	-79.9274	40.4597	2	1	2014	100	4	0.298
The Hop House	-80.0669	40.4210	2	2	2015	140	3	0.000
soprano section fifth singer down	-79.9760	40.4470	2	1	2014	45	5	0.000
Harvard Yale Princeton Club	-80.0022	40.4371	2	1	2015	157	6	0.000
Green Tree, PA_1	-80.0450	40.4124	2	2	2014	1	2	0.000
Carnegie Mellon Caf	-79.9492	40.4442	2	1	2014	175	2	0.000
Redbox_1	-79.9825	40.3660	2	1	2014	141	3	0.000
Mcclarins Bar	-79.8902	40.4032	2	1	2014	132	1	0.000
Work	-79.9256	40.4941	2	1	2014	107	4	0.000
Au Bon Pain_1	-80.0030	40.4416	2	2	2015	40	1	-0.320
Roxanne's Take-Out & Catering	-79.9543	40.4649	2	1	2014	73	5	0.000
Federated Investors_2	-79.9948	40.4443	2	1	2014	344	3	0.000
Evolve Wellness Spa	-79.9273	40.4500	2	1	2014	304	5	0.293
Equiparts	-79.9327	40.4946	2	1	2014	107	4	0.000
The Point_1	-80.0090	40.4412	2	1	2015	185	6	0.000
AutoZone_1	-79.8718	40.3662	2	1	2014	32	6	0.000
12th and West	-79.9083	40.4049	2	1	2014	67	6	0.000
Savolskis-Wasik-Glenn Funeral Home	-79.9026	40.3855	2	1	2015	37	5	-0.263
East Campus Garage	-79.9401	40.4438	2	1	2014	33	0	0.000
Greek Festival	-79.9499	40.4444	2	1	2015	127	4	0.348
Rite Aid_3	-80.0156	40.4563	2	1	2014	70	1	0.000
Entertainment Technology Center	-79.9645	40.4329	2	1	2014	100	4	0.286
South 15th Street Steps & Bridge	-79.9837	40.4241	2	1	2015	194	1	0.000
Buy N Fly	-79.9027	40.3977	2	1	2014	328	1	0.000
Backdraft Bar n Grill	-79.9677	40.3861	2	2	2014	65	0	0.000
Bottom Dollar_1	-79.9400	40.4653	2	1	2014	162	3	0.000
Labor Day Parade	-79.9873	40.4411	2	1	2014	244	1	0.000
Saint Paul Seminary	-80.0708	40.4204	2	2	2014	42	2	0.000
Three Rivers Restaurants	-80.0066	40.4417	2	1	2015	195	2	0.000
Chopstick House	-79.8661	40.4604	2	1	2014	137	6	0.000
6th And Smithfield Bus Stop	-79.9996	40.4421	2	1	2014	52	5	-0.216
McKees Rocks Bridge	-80.0483	40.4771	2	2	2015	204	4	0.000
Misaki	-80.0065	40.4115	2	2	2014	54	0	0.000
Mother's Touch Daycare	-79.9097	40.4110	2	1	2014	73	5	0.000
Chan An Restaurant_1	-79.9774	40.4309	2	1	2014	137	6	0.000
Randyland	-80.0096	40.4580	2	1	2015	116	0	0.000
PapaGallo	-80.0953	40.3826	2	1	2014	181	1	0.000
East Street	-79.9996	40.4611	2	1	2014	108	5	0.000
Schoolhouse Yoga	-79.9813	40.4543	2	1	2014	103	0	0.000
61b Schoyer Avenue Bus Stop	-79.8906	40.4234	2	1	2014	59	5	-0.216
Margaret Morrison Carnegie Hall	-79.9412	40.4421	2	2	2014	34	1	0.000
highland park_2	-79.9187	40.4748	2	1	2014	225	3	0.000
Michelle's Diner	-79.9942	40.4218	2	1	2014	150	5	0.000
AT&T_3	-79.9561	40.4434	2	1	2015	269	6	0.000
Etna	-79.9355	40.4947	2	1	2014	318	5	0.000
Fitness Factory	-79.9252	40.4584	2	1	2015	79	5	0.259
Auto Bathouse	-79.9441	40.4859	2	1	2014	66	5	0.000
Central Catholic High School	-79.9458	40.4464	2	1	2014	180	0	0.000
Allegheny Cold Storage Co	-79.9475	40.4864	2	1	2015	2	5	0.000
Apsara Cafe	-79.9818	40.4288	2	1	2014	74	6	0.000
Commonplace Voluto	-79.9334	40.4646	2	1	2014	148	3	0.000
Ron's Barber	-79.8897	40.4029	2	1	2014	100	4	0.000
Pride_2	-79.9963	40.4434	2	1	2014	166	0	0.167
bed	-79.9273	40.4754	2	1	2014	317	1	0.000
Piccadilly Artisan Yogurt and Creamery	-80.0444	40.3804	2	1	2015	220	6	0.000
